City,Area Locality,Concatenate,Area Locality,Latitude,Longitude
Bangalore,"A Narayanapura, Mahadevapura","Bangalore, A Narayanapura, Mahadevapura",2,12.9933751,77.6734738
Bangalore,"Abbiareddy Layout, Kaggadasapura","Bangalore, Abbiareddy Layout, Kaggadasapura",1,12.9793499,77.6800964
Bangalore,Abbigere,"Bangalore, Abbigere",3,13.0762712,77.5255683
Bangalore,"Aditya Nagar-Vidyaranyapura, Vidyaranyapura","Bangalore, Aditya Nagar-Vidyaranyapura, Vidyaranyapura",1,13.0923956,77.553344
Bangalore,Adugodi,"Bangalore, Adugodi",2,12.9420036,77.6083044
Bangalore,Aduru,"Bangalore, Aduru",1,13.0554775,77.7055568
Bangalore,"Aecs Layout-Singasandra, Singasandra, Hosur Road","Bangalore, Aecs Layout-Singasandra, Singasandra, Hosur Road",3,12.8814192,77.6447362
Bangalore,Agrahara Layout,"Bangalore, Agrahara Layout",1,13.0986452,77.6279983
Bangalore,"Ags Layout, Hebbal","Bangalore, Ags Layout, Hebbal",1,13.0324054,77.5916714
Bangalore,Airport Road,"Bangalore, Airport Road",1,12.954806,77.684324
Bangalore,Akshayanagar,"Bangalore, Akshayanagar",1,12.8677991,77.6166843
Bangalore,"Ambedkar Colony, Yelahanka","Bangalore, Ambedkar Colony, Yelahanka",1,13.0900342,77.5920295
Bangalore,Amrutahalli,"Bangalore, Amrutahalli",2,13.0658792,77.6042056
Bangalore,"Ananda Puram, Jeevan Bima Nagar","Bangalore, Ananda Puram, Jeevan Bima Nagar",1,12.963536,77.6582656
Bangalore,Anantapura,"Bangalore, Anantapura",2,13.1150477,77.5683899
Bangalore,Ananth Nagar,"Bangalore, Ananth Nagar",1,12.8389444,77.6898209
Bangalore,Anjanapura,"Bangalore, Anjanapura",1,12.854938,77.5542866
Bangalore,Annapurneshwari Nagar,"Bangalore, Annapurneshwari Nagar",2,12.9705504,77.4901138
Bangalore,"Aradhana Layout, Arakere","Bangalore, Aradhana Layout, Arakere",1,12.8786403,77.5884481
Bangalore,Arakere,"Bangalore, Arakere",3,12.8873875,77.5968866
Bangalore,"Arakere Mico Layout, Arakere","Bangalore, Arakere Mico Layout, Arakere",1,12.8874717,77.5924385
Bangalore,Ashok Nagar,"Bangalore, Ashok Nagar",1,12.971885,77.6070088
Bangalore,Attibele,"Bangalore, Attibele",2,12.778963,77.7702029
Bangalore,Attiguppe,"Bangalore, Attiguppe",1,12.9597914,77.5289797
Bangalore,"Attur Layout, Yelahanka New Town","Bangalore, Attur Layout, Yelahanka New Town",1,13.1069615,77.5662992
Bangalore,B.Narayanapura,"Bangalore, B.Narayanapura",1,12.9925237,77.6808128
Bangalore,BBMP convertion layout,"Bangalore, BBMP convertion layout",1,12.9715987,77.5945627
Bangalore,Babusahib Palya,"Bangalore, Babusahib Palya",1,13.0255399,77.6471693
Bangalore,Babusapalya,"Bangalore, Babusapalya",2,13.0228229,77.6520917
Bangalore,Bagalakunte,"Bangalore, Bagalakunte",2,13.052706,77.4954875
Bangalore,Bagalur,"Bangalore, Bagalur",1,13.1325768,77.6672134
Bangalore,"Balaji Gardens Layout, Gottigere","Bangalore, Balaji Gardens Layout, Gottigere",1,12.8556594,77.5948946
Bangalore,"Balaji Layout -Hongasandra, Hongasandra","Bangalore, Balaji Layout -Hongasandra, Hongasandra",1,12.8954093,77.6236308
Bangalore,Banashankari,"Bangalore, Banashankari",4,12.9254533,77.546757
Bangalore,"Banashankari Stage 2, Banashankari","Bangalore, Banashankari Stage 2, Banashankari",2,12.9248711,77.5662406
Bangalore,"Banashankari Stage 3, Banashankari","Bangalore, Banashankari Stage 3, Banashankari",2,12.9345271,77.5435215
Bangalore,Banaswadi,"Bangalore, Banaswadi",7,13.0103761,77.6481944
Bangalore,Bangalore,"Bangalore, Bangalore",1,12.9715987,77.5945627
Bangalore,Banjara Layout,"Bangalore, Banjara Layout",1,13.0335618,77.6672294
Bangalore,Bannerghatta Main Road,"Bangalore, Bannerghatta Main Road",5,12.8394962,77.5888702
Bangalore,Basava Nagar,"Bangalore, Basava Nagar",3,12.9670863,77.6808128
Bangalore,Basavanagudi,"Bangalore, Basavanagudi",3,12.9405997,77.5737633
Bangalore,Basavanapura,"Bangalore, Basavanapura",1,13.013146,77.7130151
Bangalore,Basaveshvara Nagar,"Bangalore, Basaveshvara Nagar",3,12.9879576,77.5374662
Bangalore,Basaveshwar Nagar,"Bangalore, Basaveshwar Nagar",4,12.9879576,77.5374662
Bangalore,Basaveshwara Layout,"Bangalore, Basaveshwara Layout",1,13.04327,77.5718442
Bangalore,Battarahalli,"Bangalore, Battarahalli",3,13.0244644,77.7072675
Bangalore,Bda Layout -Lingarajapuram,"Bangalore, Bda Layout -Lingarajapuram",1,13.0060027,77.6303438
Bangalore,"Bedarahalli, Magadi Road","Bangalore, Bedarahalli, Magadi Road",1,12.9851402,77.4820775
Bangalore,Begur,"Bangalore, Begur",3,12.8787673,77.6376676
Bangalore,Begur Koppa Rd,"Bangalore, Begur Koppa Rd",1,12.8621874,77.6144586
Bangalore,Begur Road,"Bangalore, Begur Road",2,12.8890191,77.6256512
Bangalore,Benson Town,"Bangalore, Benson Town",1,13.004681,77.5999443
Bangalore,Bettadasanapura,"Bangalore, Bettadasanapura",1,12.8438478,77.6347342
Bangalore,Bhattarahalli,"Bangalore, Bhattarahalli",1,13.0175283,77.7107665
Bangalore,"Bhel Layout, Rajarajeshwari Nagar","Bangalore, Bhel Layout, Rajarajeshwari Nagar",1,12.9228497,77.5096278
Bangalore,"Bhel Township- Malleshwaram, Malleshwaram","Bangalore, Bhel Township- Malleshwaram, Malleshwaram",2,13.0099658,77.5641809
Bangalore,Bhuvaneswari Nagar,"Bangalore, Bhuvaneswari Nagar",1,13.0545047,77.6036145
Bangalore,"Bikasipura, kanakapura Road","Bangalore, Bikasipura, kanakapura Road",2,12.8889522,77.5626568
Bangalore,Bilekahalli,"Bangalore, Bilekahalli",5,12.8984604,77.6057848
Bangalore,"Bohra Layout, Gottigere, bannerghatta main Road","Bangalore, Bohra Layout, Gottigere, bannerghatta main Road",1,12.854497,77.588651
Bangalore,Bommanahalli,"Bangalore, Bommanahalli",8,12.9029804,77.6241936
Bangalore,Bommasandra,"Bangalore, Bommasandra",2,12.8167303,77.6974369
Bangalore,Btm Layout,"Bangalore, Btm Layout",7,12.9165757,77.6101163
Bangalore,"Btm Layout Stage 2, BTM Layout","Bangalore, Btm Layout Stage 2, BTM Layout",3,12.9554222,77.6509692
Bangalore,Btm Layout Stage 4,"Bangalore, Btm Layout Stage 4",2,12.8906312,77.6178125
Bangalore,Budigere Cross,"Bangalore, Budigere Cross",1,13.0638419,77.7455657
Bangalore,Byatarayanapura,"Bangalore, Byatarayanapura",3,13.0597892,77.5933367
Bangalore,"Bydara Halli, Benson Town","Bangalore, Bydara Halli, Benson Town",1,12.9979631,77.6027732
Bangalore,Byrathi,"Bangalore, Byrathi",3,13.0528869,77.6501486
Bangalore,C V Raman Nagar,"Bangalore, C V Raman Nagar",7,12.9793254,77.6641841
Bangalore,CV Raman Nagar,"Bangalore, CV Raman Nagar",1,12.9793254,77.6641841
Bangalore,Chamrajpet,"Bangalore, Chamrajpet",2,12.9569869,77.5621397
Bangalore,"Chamundeshwari Layout, Arakere","Bangalore, Chamundeshwari Layout, Arakere",2,12.8858967,77.6036684
Bangalore,"Chamundi Nagar, Rajajinagar","Bangalore, Chamundi Nagar, Rajajinagar",1,12.9812177,77.5558518
Bangalore,Chandapura,"Bangalore, Chandapura",2,12.8017099,77.7116112
Bangalore,Channasandra,"Bangalore, Channasandra",1,12.979699,77.761624
Bangalore,"Chelekare, Kalyan Nagar, Outer Ring Road","Bangalore, Chelekare, Kalyan Nagar, Outer Ring Road",1,13.0244104,77.6433213
Bangalore,"Chikbasavnapura, Krishnarajapura","Bangalore, Chikbasavnapura, Krishnarajapura",1,13.0127356,77.7044287
Bangalore,Chikkabanavara,"Bangalore, Chikkabanavara",4,13.0753965,77.5093952
Bangalore,Chikkalasandra,"Bangalore, Chikkalasandra",3,12.9120815,77.5462476
Bangalore,"Chikkalasandra, Bangalore","Bangalore, Chikkalasandra, Bangalore",1,12.9120815,77.5462476
Bangalore,"Chikkana Layout, Kammanahalli","Bangalore, Chikkana Layout, Kammanahalli",1,13.0128256,77.6400174
Bangalore,"Chikkasandra-Jalahalli West, Jalahalli West","Bangalore, Chikkasandra-Jalahalli West, Jalahalli West",1,13.0663363,77.5117782
Bangalore,Chinnapanna Halli,"Bangalore, Chinnapanna Halli",1,12.9670265,77.7047758
Bangalore,Choodasandra,"Bangalore, Choodasandra",2,12.88563,77.6805328
Bangalore,"Chowdeshwari Layout, Yelahanka","Bangalore, Chowdeshwari Layout, Yelahanka",1,13.1079263,77.5929796
Bangalore,"Chuchangatta Colony, J P Nagar","Bangalore, Chuchangatta Colony, J P Nagar",1,12.8846074,77.5743694
Bangalore,"Coffee Board Layout, Nagavara","Bangalore, Coffee Board Layout, Nagavara",1,13.050466,77.6070703
Bangalore,"Cooke Town, Cooke Town","Bangalore, Cooke Town, Cooke Town",1,13.0031678,77.6228252
Bangalore,Cox Town,"Bangalore, Cox Town",1,12.9965726,77.6303226
Bangalore,Cunningham Road,"Bangalore, Cunningham Road",1,12.9876915,77.5944579
Bangalore,Devanahalli,"Bangalore, Devanahalli",1,13.2437197,77.7172413
Bangalore,"Devarachikannahalli, Begur Road","Bangalore, Devarachikannahalli, Begur Road",1,12.8824524,77.6247562
Bangalore,"Devinagar, Outer Ring Road","Bangalore, Devinagar, Outer Ring Road",1,13.0470681,77.5703822
Bangalore,"Dinnur, Hebbal","Bangalore, Dinnur, Hebbal",1,13.0273646,77.5970433
Bangalore,"Dodda Banaswadi, Banaswadi","Bangalore, Dodda Banaswadi, Banaswadi",1,13.0159203,77.6528966
Bangalore,"Dodda Nekkundi Extension, Kartik Nagar, Outer Ring Road","Bangalore, Dodda Nekkundi Extension, Kartik Nagar, Outer Ring Road",1,12.968515,77.7013617
Bangalore,Doddaballapur Road,"Bangalore, Doddaballapur Road",1,13.1394778,77.5693496
Bangalore,Doddabanahalli,"Bangalore, Doddabanahalli",1,13.0264961,77.7409162
Bangalore,Doddabidarakallu,"Bangalore, Doddabidarakallu",1,13.0332887,77.4906233
Bangalore,Doddakammanahalli,"Bangalore, Doddakammanahalli",1,12.8496672,77.5999347
Bangalore,Doddanagamangala,"Bangalore, Doddanagamangala",2,12.8557978,77.6740729
Bangalore,"Doddanekundi, Kartik Nagar","Bangalore, Doddanekundi, Kartik Nagar",2,12.9694839,77.6993945
Bangalore,"Doddathoguru, Electronic City","Bangalore, Doddathoguru, Electronic City",1,12.8490414,77.6486011
Bangalore,"Domlur, Domlur","Bangalore, Domlur, Domlur",1,12.9609857,77.6387316
Bangalore,"Dooravani Nagar, Dooravani Nagar","Bangalore, Dooravani Nagar, Dooravani Nagar",3,13.0029587,77.6677669
Bangalore,"Dr.Shivaram Karanth Nagar, Jakkuru","Bangalore, Dr.Shivaram Karanth Nagar, Jakkuru",2,13.0719019,77.6264055
Bangalore,"Dwarka Nagar, Kattigenahalli","Bangalore, Dwarka Nagar, Kattigenahalli",1,13.1225407,77.6206769
Bangalore,"East Of Ngef Layout, Bennigana Halli","Bangalore, East Of Ngef Layout, Bennigana Halli",1,13.005025,77.6614869
Bangalore,Ejipura,"Bangalore, Ejipura",1,12.9385333,77.6308174
Bangalore,Electronic City,"Bangalore, Electronic City",24,12.8452145,77.6601695
Bangalore,"Electronic City Phase 2, Electronic City","Bangalore, Electronic City Phase 2, Electronic City",11,12.8441489,77.6793813
Bangalore,"Electronics City Phase 1, Electronic City","Bangalore, Electronics City Phase 1, Electronic City",6,12.846804,77.670324
Bangalore,"Ews Colony, BTM Layout","Bangalore, Ews Colony, BTM Layout",1,12.9046136,77.614948
Bangalore,"Fci Layout, Deepanjali Nagar","Bangalore, Fci Layout, Deepanjali Nagar",1,12.9507849,77.532563
Bangalore,Frazer Town,"Bangalore, Frazer Town",4,12.9970483,77.6144076
Bangalore,GH Society,"Bangalore, GH Society",1,12.9715987,77.5945627
Bangalore,Ganga Nagar,"Bangalore, Ganga Nagar",1,13.0205848,77.5886738
Bangalore,Garden City University,"Bangalore, Garden City University",1,12.978676,77.6338202
Bangalore,"Garebhavipalya, Hongasandra, Hosur Road","Bangalore, Garebhavipalya, Hongasandra, Hosur Road",1,12.8997549,77.6333464
Bangalore,Garvebhavi Palya,"Bangalore, Garvebhavi Palya",2,12.8943711,77.6368124
Bangalore,Gh society,"Bangalore, Gh society",1,12.9715987,77.5945627
Bangalore,Girinagar,"Bangalore, Girinagar",1,12.9420948,77.5463577
Bangalore,Gottigere,"Bangalore, Gottigere",6,12.856443,77.5888448
Bangalore,Gottigere Main Rd,"Bangalore, Gottigere Main Rd",1,12.8616498,77.5616339
Bangalore,"Gubbalala, Subramanyapura","Bangalore, Gubbalala, Subramanyapura",1,12.8870638,77.5433122
Bangalore,"Guddadahalli, Mysore Road","Bangalore, Guddadahalli, Mysore Road",1,12.9567547,77.5495002
Bangalore,Gunjur,"Bangalore, Gunjur",1,12.921337,77.7340046
Bangalore,Guttahalli,"Bangalore, Guttahalli",2,12.9974138,77.5780424
Bangalore,HMT Layout Nagasandra,"Bangalore, HMT Layout Nagasandra",1,13.0406424,77.5007785
Bangalore,HRBR Layout Block 1,"Bangalore, HRBR Layout Block 1",1,13.0136856,77.6479702
Bangalore,"Hal Layout, Hosur Road","Bangalore, Hal Layout, Hosur Road",1,12.8862897,77.6417328
Bangalore,Halasuru,"Bangalore, Halasuru",4,12.9817001,77.6284152
Bangalore,Haralur Road,"Bangalore, Haralur Road",1,12.9043304,77.6621869
Bangalore,Hbr Layout,"Bangalore, Hbr Layout",3,13.0353236,77.6284701
Bangalore,"Hbr Layout Block 2, HBR Layout","Bangalore, Hbr Layout Block 2, HBR Layout",1,13.0502398,77.6351193
Bangalore,"Hbr Layout Block 4, HBR Layout","Bangalore, Hbr Layout Block 4, HBR Layout",1,13.01199,77.636613
Bangalore,Hebbal,"Bangalore, Hebbal",9,13.0353557,77.5987874
Bangalore,Hebbal Kempapura,"Bangalore, Hebbal Kempapura",4,13.0529125,77.6014859
Bangalore,"Hegde Nagar, R.K.Hegde Nagar","Bangalore, Hegde Nagar, R.K.Hegde Nagar",1,13.0675728,77.6335573
Bangalore,Hegganahalli,"Bangalore, Hegganahalli",1,13.0064241,77.5171157
Bangalore,Hennur Main Road,"Bangalore, Hennur Main Road",4,13.0139064,77.6266504
Bangalore,"Hennur, Hennur Bagalur Road","Bangalore, Hennur, Hennur Bagalur Road",3,13.0379677,77.6413476
Bangalore,Hesaraghatta Main Road,"Bangalore, Hesaraghatta Main Road",1,13.0943002,77.4879877
Bangalore,"Hmt Layout Block 4, Vidyaranyapura","Bangalore, Hmt Layout Block 4, Vidyaranyapura",1,13.0843679,77.5598657
Bangalore,Hommadevanahalli,"Bangalore, Hommadevanahalli",2,12.8445059,77.5977596
Bangalore,Hongasandra,"Bangalore, Hongasandra",4,12.8933622,77.6258081
Bangalore,"Hoodi Circle, Hoodi","Bangalore, Hoodi Circle, Hoodi",1,12.992277,77.716146
Bangalore,"Hoodi, Hoodi","Bangalore, Hoodi, Hoodi",1,12.9895552,77.7126571
Bangalore,Horamavu,"Bangalore, Horamavu",6,13.0326328,77.6583345
Bangalore,"Horamavu Agara, Hormavu","Bangalore, Horamavu Agara, Hormavu",1,13.0411068,77.6622027
Bangalore,Horamavu kelkkeri road,"Bangalore, Horamavu kelkkeri road",1,13.0306162,77.667275
Bangalore,Hormavu Ring Road,"Bangalore, Hormavu Ring Road",1,13.0187519,77.6561242
Bangalore,Hosa Road Junction,"Bangalore, Hosa Road Junction",1,12.8734883,77.6580911
Bangalore,"Hosa Road, off Hosur Road","Bangalore, Hosa Road, off Hosur Road",2,12.8690347,77.6549457
Bangalore,Hosakerehalli,"Bangalore, Hosakerehalli",3,12.9221653,77.5362561
Bangalore,Hosur Road,"Bangalore, Hosur Road",1,12.8539184,77.6660751
Bangalore,Hoysala Nagar,"Bangalore, Hoysala Nagar",1,13.01728,77.6664976
Bangalore,"Hrbr Layout Block 2, Kalyan Nagar, Outer Ring Road","Bangalore, Hrbr Layout Block 2, Kalyan Nagar, Outer Ring Road",3,13.0258521,77.6413426
Bangalore,"Hrbr Layout, Kalyan Nagar, Outer Ring Road","Bangalore, Hrbr Layout, Kalyan Nagar, Outer Ring Road",1,13.0234839,77.6449259
Bangalore,Hsr Layout,"Bangalore, Hsr Layout",2,12.9121181,77.6445548
Bangalore,"Hsr Layout Sector 2, HSR Layout","Bangalore, Hsr Layout Sector 2, HSR Layout",1,12.908942,77.6464534
Bangalore,"Hsr Layout Sector 3, HSR Layout","Bangalore, Hsr Layout Sector 3, HSR Layout",1,12.9079567,77.640957
Bangalore,"Hsr Layout Sector 6, HSR Layout","Bangalore, Hsr Layout Sector 6, HSR Layout",1,12.9137705,77.6292697
Bangalore,Hulimavu,"Bangalore, Hulimavu",5,12.8718155,77.6021817
Bangalore,Hutchins Road,"Bangalore, Hutchins Road",1,13.0035677,77.6225941
Bangalore,ITI Layout,"Bangalore, ITI Layout",1,12.9030203,77.6407258
Bangalore,"Ilyas Nagar, Kumaraswamy Layout","Bangalore, Ilyas Nagar, Kumaraswamy Layout",1,12.9063651,77.5704341
Bangalore,"Immadihalli, Whitefield","Bangalore, Immadihalli, Whitefield",1,12.9650186,77.7595472
Bangalore,Indira Nagar,"Bangalore, Indira Nagar",5,12.9783692,77.6408356
Bangalore,"Isro Layout, Kumaraswamy Layout","Bangalore, Isro Layout, Kumaraswamy Layout",1,12.8984834,77.5590645
Bangalore,"Itc Colony, Maruthi Sevanagar","Bangalore, Itc Colony, Maruthi Sevanagar",1,12.9968747,77.6320185
Bangalore,"Itpl, Whitefield","Bangalore, Itpl, Whitefield",1,12.9858421,77.7355549
Bangalore,"Ittamadu, Banashankari, Outer Ring Road","Bangalore, Ittamadu, Banashankari, Outer Ring Road",1,12.9268829,77.5478917
Bangalore,J P Nagar,"Bangalore, J P Nagar",8,12.9063433,77.5856825
Bangalore,JAR Shikara,"Bangalore, JAR Shikara",1,13.0150893,77.6930061
Bangalore,"Jagadish Nagar, Kaggadasapura","Bangalore, Jagadish Nagar, Kaggadasapura",1,12.9684536,77.6639859
Bangalore,Jakkur,"Bangalore, Jakkur",2,13.0631411,77.6206769
Bangalore,"Jakkur Plantation, Jakkuru, Bellary Road","Bangalore, Jakkur Plantation, Jakkuru, Bellary Road",1,13.0833844,77.5937611
Bangalore,Jalahalli East,"Bangalore, Jalahalli East",1,13.0699231,77.5448599
Bangalore,"Jalahalli, Jalahalli, Outer Ring Road","Bangalore, Jalahalli, Jalahalli, Outer Ring Road",5,13.0422418,77.5489567
Bangalore,"Jaya Nagar Block 1, Jayanagar","Bangalore, Jaya Nagar Block 1, Jayanagar",1,12.9163485,77.5775912
Bangalore,Jaya Nagar Block 3,"Bangalore, Jaya Nagar Block 3",1,12.9184338,77.5880901
Bangalore,"Jaya Nagar Block 5, Jayanagar","Bangalore, Jaya Nagar Block 5, Jayanagar",1,12.91781,77.58374
Bangalore,"Jaya Nagar Block 7, Jayanagar","Bangalore, Jaya Nagar Block 7, Jayanagar",1,12.9269735,77.5766264
Bangalore,Jayanagar,"Bangalore, Jayanagar",2,12.9307735,77.5838302
Bangalore,"Jayanti Nagar, Hormavu","Bangalore, Jayanti Nagar, Hormavu",1,13.0218552,77.6702364
Bangalore,"Jeevan Bima Nagar, Airport Road","Bangalore, Jeevan Bima Nagar, Airport Road",2,12.9590786,77.6583718
Bangalore,"Jeevanhalli, Cox Town","Bangalore, Jeevanhalli, Cox Town",1,12.9976528,77.6256895
Bangalore,Jnana Ganga Nagar,"Bangalore, Jnana Ganga Nagar",1,12.9512646,77.4860655
Bangalore,Jogupalya,"Bangalore, Jogupalya",1,12.9693799,77.6229447
Bangalore,"Jp Nagar Phase 1, J P Nagar","Bangalore, Jp Nagar Phase 1, J P Nagar",3,12.9118374,77.579495
Bangalore,"Jp Nagar Phase 2, J P Nagar","Bangalore, Jp Nagar Phase 2, J P Nagar",1,12.8933662,77.5751833
Bangalore,"Jp Nagar Phase 5, J P Nagar, Outer Ring Road","Bangalore, Jp Nagar Phase 5, J P Nagar, Outer Ring Road",5,12.9062658,77.5904498
Bangalore,"Jp Nagar Phase 6, J P Nagar, Outer Ring Road","Bangalore, Jp Nagar Phase 6, J P Nagar, Outer Ring Road",2,13.0277782,77.6324487
Bangalore,"Jp Nagar Phase 7, J P Nagar","Bangalore, Jp Nagar Phase 7, J P Nagar",11,12.8890015,77.573385
Bangalore,"Jyothi Nagar, Dooravani Nagar","Bangalore, Jyothi Nagar, Dooravani Nagar",1,12.9629041,77.6672134
Bangalore,K R Puram,"Bangalore, K R Puram",19,13.0169992,77.7044335
Bangalore,Kacharakanahalli,"Bangalore, Kacharakanahalli",1,13.0156289,77.6321339
Bangalore,Kachohalli,"Bangalore, Kachohalli",1,13.0000525,77.4709142
Bangalore,Kadabagere,"Bangalore, Kadabagere",1,12.9968854,77.4331027
Bangalore,Kadugodi,"Bangalore, Kadugodi",2,12.9908404,77.7607805
Bangalore,Kadugodi Pattalamma Layout,"Bangalore, Kadugodi Pattalamma Layout",1,12.9915669,77.7645194
Bangalore,"Kadugondanahalli, Kadugondanahalli","Bangalore, Kadugondanahalli, Kadugondanahalli",1,13.0186175,77.6186375
Bangalore,"Kaggadasapura, Indira nagar","Bangalore, Kaggadasapura, Indira nagar",8,12.9783692,77.6408356
Bangalore,"Kalasipalyam, Kalasipalyam","Bangalore, Kalasipalyam, Kalasipalyam",1,12.9594549,77.5805685
Bangalore,Kalkere,"Bangalore, Kalkere",1,13.0334934,77.673888
Bangalore,Kalyan Nagar,"Bangalore, Kalyan Nagar",1,13.0239923,77.643294
Bangalore,Kamala Nagar,"Bangalore, Kamala Nagar",3,12.9993221,77.5285469
Bangalore,"Kammagondahalli, Jalahalli","Bangalore, Kammagondahalli, Jalahalli",1,13.0589726,77.5347129
Bangalore,Kammanahalli,"Bangalore, Kammanahalli",3,13.0159044,77.6378619
Bangalore,Kanakapura Road,"Bangalore, Kanakapura Road",8,12.8462411,77.5203998
Bangalore,Kannur,"Bangalore, Kannur",1,13.0927094,77.6547023
Bangalore,Karihobanahalli,"Bangalore, Karihobanahalli",1,13.0168918,77.4831032
Bangalore,Kasturi Nagar,"Bangalore, Kasturi Nagar",1,13.0060924,77.6594498
Bangalore,"Kattigenahalli, Bellary Road","Bangalore, Kattigenahalli, Bellary Road",4,13.1248501,77.6121441
Bangalore,Kempapura Agrahara,"Bangalore, Kempapura Agrahara",1,12.9701144,77.5526275
Bangalore,Kengeri,"Bangalore, Kengeri",4,12.8996676,77.4826837
Bangalore,Kengeri Hobli,"Bangalore, Kengeri Hobli",2,12.9017955,77.453704
Bangalore,Kengeri Main Road,"Bangalore, Kengeri Main Road",1,12.9490879,77.4972287
Bangalore,Kengeri Satellite Town,"Bangalore, Kengeri Satellite Town",1,12.9230523,77.4846519
Bangalore,Kengeri Upanagara,"Bangalore, Kengeri Upanagara",1,12.9386704,77.4791599
Bangalore,"Kereguddadahalli, chikkabanavara Bangalore","Bangalore, Kereguddadahalli, chikkabanavara Bangalore",1,13.080612,77.5146453
Bangalore,Kithiganur,"Bangalore, Kithiganur",1,13.0384626,77.7060037
Bangalore,Kodi Halli,"Bangalore, Kodi Halli",3,12.9653506,77.6493099
Bangalore,Kodichikkanahalli Main Road,"Bangalore, Kodichikkanahalli Main Road",1,12.8978598,77.6142488
Bangalore,Kodigehalli,"Bangalore, Kodigehalli",2,13.0697279,77.5787819
Bangalore,Kodigenahalli,"Bangalore, Kodigenahalli",2,13.0697279,77.5787819
Bangalore,Kogilu,"Bangalore, Kogilu",1,13.101268,77.6125565
Bangalore,Konanakunte,"Bangalore, Konanakunte",2,12.8822193,77.5659682
Bangalore,"Konappana Agrahara, Electronic City","Bangalore, Konappana Agrahara, Electronic City",1,12.854899,77.6679292
Bangalore,Koramangala,"Bangalore, Koramangala",8,12.9351929,77.6244807
Bangalore,Koramangala 8Th Block,"Bangalore, Koramangala 8Th Block",1,12.9414686,77.6178125
Bangalore,Koramangala Block 4,"Bangalore, Koramangala Block 4",2,12.9365627,77.6180768
Bangalore,Kothanur,"Bangalore, Kothanur",2,13.0551932,77.6422206
Bangalore,"Kr Garden-Murugeshpalya, Murugeshpalya, Airport Road","Bangalore, Kr Garden-Murugeshpalya, Murugeshpalya, Airport Road",1,12.954806,77.684324
Bangalore,Krishna Reddy Layout -Domlur,"Bangalore, Krishna Reddy Layout -Domlur",1,12.9545388,77.6400098
Bangalore,Kudlu,"Bangalore, Kudlu",1,12.8870683,77.6562206
Bangalore,Kudlu Gate,"Bangalore, Kudlu Gate",2,12.890984,77.6400098
Bangalore,"Kumaraswamy Layout, Kumaraswamy Layout","Bangalore, Kumaraswamy Layout, Kumaraswamy Layout",1,12.9044382,77.5649278
Bangalore,Kyalasanahalli,"Bangalore, Kyalasanahalli",1,13.0600731,77.6580084
Bangalore,Laggere,"Bangalore, Laggere",2,13.0097647,77.5253962
Bangalore,"Lakkasandra, Wilson Garden, bannerghatta main road","Bangalore, Lakkasandra, Wilson Garden, bannerghatta main road",1,12.9444422,77.6027873
Bangalore,Lakshmipura,"Bangalore, Lakshmipura",1,13.0877782,77.5311297
Bangalore,"Langford Town, Shanti Nagar, Hosur Road","Bangalore, Langford Town, Shanti Nagar, Hosur Road",1,12.9575585,77.6059513
Bangalore,Lavelle Road,"Bangalore, Lavelle Road",1,12.9711448,77.5978768
Bangalore,"Laxminarayana Layout, Munnekollal","Bangalore, Laxminarayana Layout, Munnekollal",1,12.9452387,77.7115841
Bangalore,"Lingarajapuram, Lingarajapuram, Hennur Main Road","Bangalore, Lingarajapuram, Lingarajapuram, Hennur Main Road",1,13.0124232,77.6258047
Bangalore,"M C Layout, Vijayanagar, Magadi Road","Bangalore, M C Layout, Vijayanagar, Magadi Road",1,12.9786376,77.5417177
Bangalore,Madanayakahalli,"Bangalore, Madanayakahalli",1,13.060978,77.4613745
Bangalore,Magadi Road,"Bangalore, Magadi Road",1,12.9869182,77.4762048
Bangalore,Mahadevapura,"Bangalore, Mahadevapura",13,12.9879659,77.6895248
Bangalore,Mahatma Gandhi Road,"Bangalore, Mahatma Gandhi Road",1,12.9746983,77.609448
Bangalore,Mailasandar,"Bangalore, Mailasandar",1,12.8538319,77.6206518
Bangalore,"Mallasandra, Jalahalli West","Bangalore, Mallasandra, Jalahalli West",2,13.0606824,77.5117782
Bangalore,"Mallathahalli, Outer Ring Road","Bangalore, Mallathahalli, Outer Ring Road",2,13.0277782,77.6324487
Bangalore,"Malleshpalya, Kaggadasapura","Bangalore, Malleshpalya, Kaggadasapura",2,12.9756762,77.6778473
Bangalore,Malleshwaram,"Bangalore, Malleshwaram",3,13.0055113,77.5692358
Bangalore,Manayata Tech Park,"Bangalore, Manayata Tech Park",1,13.0448306,77.6221091
Bangalore,"Mangammanapalya, Hosur Road","Bangalore, Mangammanapalya, Hosur Road",1,12.9030785,77.6313265
Bangalore,"Manyata Residency, Thanisandra","Bangalore, Manyata Residency, Thanisandra",1,13.0540547,77.6228252
Bangalore,Marathahalli,"Bangalore, Marathahalli",4,12.956924,77.701127
Bangalore,Marathahalli-Sarjapur Outer Ring Road,"Bangalore, Marathahalli-Sarjapur Outer Ring Road",1,12.9326897,77.6880335
Bangalore,Margondanahalli,"Bangalore, Margondanahalli",1,13.0373995,77.692721
Bangalore,"Maruthi Extesnion, Rajajinagar","Bangalore, Maruthi Extesnion, Rajajinagar",1,12.9982485,77.562241
Bangalore,"Maruthi Nagar-Kaggadasapura, Kaggadasapura","Bangalore, Maruthi Nagar-Kaggadasapura, Kaggadasapura",1,12.97573,77.6768763
Bangalore,"Maruthi Nagar-Yelahanka, Yelahanka","Bangalore, Maruthi Nagar-Yelahanka, Yelahanka",1,13.1107335,77.607471
Bangalore,Maruthi Sevanagar,"Bangalore, Maruthi Sevanagar",5,13.0013782,77.6298047
Bangalore,"Marutinagar,","Bangalore, Marutinagar,",1,13.0488712,77.5741212
Bangalore,Mathikere,"Bangalore, Mathikere",7,13.0334194,77.5639761
Bangalore,Mavalli,"Bangalore, Mavalli",1,12.9497802,77.589773
Bangalore,"Mcechs Layout, Jakkuru","Bangalore, Mcechs Layout, Jakkuru",1,13.0879103,77.60342
Bangalore,Medahalli,"Bangalore, Medahalli",2,13.0317051,77.7160525
Bangalore,Meenakshi Layout Hosa Road,"Bangalore, Meenakshi Layout Hosa Road",1,12.8838092,77.6722644
Bangalore,"Meenakshi Layout, Kengeri","Bangalore, Meenakshi Layout, Kengeri",1,12.9000594,77.4834617
Bangalore,"Moodalaplya, Vijayanagar","Bangalore, Moodalaplya, Vijayanagar",1,12.9722331,77.5234092
Bangalore,"Ms Palya, Vidyaranyapura","Bangalore, Ms Palya, Vidyaranyapura",3,13.0803535,77.5479049
Bangalore,Mudhaliar layout,"Bangalore, Mudhaliar layout",1,12.906293,77.6774288
Bangalore,Munnekollal,"Bangalore, Munnekollal",2,12.9530189,77.7088108
Bangalore,"Murugeshpalya, Airport Road","Bangalore, Murugeshpalya, Airport Road",14,12.9593257,77.6569182
Bangalore,Mylasandra,"Bangalore, Mylasandra",2,12.8538319,77.6206518
Bangalore,Mysore Road,"Bangalore, Mysore Road",3,12.849118,77.4236949
Bangalore,Nagadevana Halli,"Bangalore, Nagadevana Halli",1,12.9421673,77.4906157
Bangalore,Nagappa Reddy layout-Dooravani Nagar,"Bangalore, Nagappa Reddy layout-Dooravani Nagar",1,13.0093478,77.6779499
Bangalore,Nagarabhavi,"Bangalore, Nagarabhavi",1,12.9719321,77.512749
Bangalore,Nagarathpete,"Bangalore, Nagarathpete",1,12.9670424,77.5822988
Bangalore,Nagarbhavi,"Bangalore, Nagarbhavi",5,12.9719321,77.512749
Bangalore,Nagavara,"Bangalore, Nagavara",1,13.0421565,77.6135776
Bangalore,Nagondanahalli,"Bangalore, Nagondanahalli",2,12.971241,77.7678875
Bangalore,Nagvarpalya Main Road,"Bangalore, Nagvarpalya Main Road",1,12.9899135,77.6638731
Bangalore,"Nallurhalli, Whitefield, Borewell Road","Bangalore, Nallurhalli, Whitefield, Borewell Road",2,12.9690915,77.7427638
Bangalore,Nandini Layout,"Bangalore, Nandini Layout",3,13.0136616,77.5339379
Bangalore,"Nanja Reddy Colony, Jeevan Bima Nagar","Bangalore, Nanja Reddy Colony, Jeevan Bima Nagar",1,12.9618446,77.6583441
Bangalore,Near coffee board layout,"Bangalore, Near coffee board layout",1,13.050466,77.6070703
Bangalore,Neelasandra,"Bangalore, Neelasandra",1,12.9550291,77.6142102
Bangalore,Nelamangala,"Bangalore, Nelamangala",1,13.097301,77.3856398
Bangalore,New Bel Road,"Bangalore, New Bel Road",1,13.0302328,77.570572
Bangalore,New Thippasandra,"Bangalore, New Thippasandra",1,12.9717571,77.6551929
Bangalore,Nimbekaipura,"Bangalore, Nimbekaipura",1,13.0580534,77.7560972
Bangalore,Nisarga capital appartment,"Bangalore, Nisarga capital appartment",1,12.9715987,77.5945627
Bangalore,No 309 6th A cross Banashankari 1st stage 2nd block Bangalore 560050,"Bangalore, No 309 6th A cross Banashankari 1st stage 2nd block Bangalore 560050",1,12.9385543,77.5565292
Bangalore,"Nobo Nagar, Kalena Agrahara","Bangalore, Nobo Nagar, Kalena Agrahara",1,12.8680604,77.595969
Bangalore,Nri Layout,"Bangalore, Nri Layout",4,13.0298083,77.6793064
Bangalore,Old Airport Road,"Bangalore, Old Airport Road",3,12.954806,77.684324
Bangalore,"Ombr Layout, Banaswadi","Bangalore, Ombr Layout, Banaswadi",2,13.0075666,77.6504664
Bangalore,Padmanabha Nagar,"Bangalore, Padmanabha Nagar",6,12.9155691,77.5567733
Bangalore,"Pai Layout-Hulimavu, Hulimavu","Bangalore, Pai Layout-Hulimavu, Hulimavu",1,12.8812029,77.5977596
Bangalore,"Panduranga Nagar, bannerghatta main Road","Bangalore, Panduranga Nagar, bannerghatta main Road",3,12.8963112,77.5995782
Bangalore,Parappana Agrahara,"Bangalore, Parappana Agrahara",1,12.8734883,77.6580911
Bangalore,Peenya 2nd Stage,"Bangalore, Peenya 2nd Stage",1,13.0102456,77.5006664
Bangalore,"Peenya Industrial Area, Tumkur Road","Bangalore, Peenya Industrial Area, Tumkur Road",1,13.038683,77.5205701
Bangalore,"Prakruthi Township, Hennur","Bangalore, Prakruthi Township, Hennur",2,13.038071,77.6480753
Bangalore,Punyabhoomi Layout,"Bangalore, Punyabhoomi Layout",1,13.0306828,77.6732975
Bangalore,RT Nagar,"Bangalore, RT Nagar",1,13.0247291,77.5947532
Bangalore,Ragavendra Industrial Estate,"Bangalore, Ragavendra Industrial Estate",1,13.0164298,77.4881219
Bangalore,Ragavendra Nagar,"Bangalore, Ragavendra Nagar",1,13.01152,77.4888388
Bangalore,Raghavendra Layout,"Bangalore, Raghavendra Layout",1,12.9554316,77.7105108
Bangalore,Raghuvanahalli-Bcmc Layout,"Bangalore, Raghuvanahalli-Bcmc Layout",1,12.8778551,77.5425957
Bangalore,Rajajinagar,"Bangalore, Rajajinagar",8,12.9981732,77.5530446
Bangalore,Rajamahal Guttahalli,"Bangalore, Rajamahal Guttahalli",1,12.9995954,77.5837943
Bangalore,Rajarajeshwari Nagar,"Bangalore, Rajarajeshwari Nagar",3,12.9148603,77.5206395
Bangalore,Ramachandrapuram Rajajinagar,"Bangalore, Ramachandrapuram Rajajinagar",1,12.9884247,77.5618429
Bangalore,Ramagondanahalli,"Bangalore, Ramagondanahalli",1,12.9558171,77.7409162
Bangalore,"Ramaiah Layout, Kacharakanahalli","Bangalore, Ramaiah Layout, Kacharakanahalli",1,13.0192658,77.6342819
Bangalore,Ramamurthy Nagar,"Bangalore, Ramamurthy Nagar",12,13.0163134,77.6784812
Bangalore,Ramaswami Palya kammanhalli,"Bangalore, Ramaswami Palya kammanhalli",1,13.0050042,77.6367374
Bangalore,Rampura,"Bangalore, Rampura",1,13.0528058,77.6912085
Bangalore,Rayasandra,"Bangalore, Rayasandra",5,12.8622826,77.6751531
Bangalore,"Rbi Colony-Jayanagar, Jayanagar","Bangalore, Rbi Colony-Jayanagar, Jayanagar",1,12.929743,77.5941783
Bangalore,"Rbi Layout, J P Nagar","Bangalore, Rbi Layout, J P Nagar",1,12.8895219,77.5798522
Bangalore,Rmv Extension Stage 2,"Bangalore, Rmv Extension Stage 2",1,13.0422174,77.5700444
Bangalore,"Rmv Extension, Armane Nagar","Bangalore, Rmv Extension, Armane Nagar",1,13.0130042,77.5777031
Bangalore,"Royal Lakefront Phase-3 North, JP Nagar Phase 8","Bangalore, Royal Lakefront Phase-3 North, JP Nagar Phase 8",1,12.8928139,77.5875391
Bangalore,Rukmini Nagar,"Bangalore, Rukmini Nagar",1,13.0457105,77.4945741
Bangalore,Sadashiva Nagar,"Bangalore, Sadashiva Nagar",1,13.0068182,77.5812849
Bangalore,Sahakara Nagar,"Bangalore, Sahakara Nagar",2,13.0623425,77.5871032
Bangalore,"Sai Colony, Krishnarajapura","Bangalore, Sai Colony, Krishnarajapura",1,13.0024007,77.7545066
Bangalore,Sanjay Nagar Stage 2,"Bangalore, Sanjay Nagar Stage 2",1,13.0409691,77.5787776
Bangalore,Sarjapur Road,"Bangalore, Sarjapur Road",3,12.9034901,77.7038636
Bangalore,Sathnur,"Bangalore, Sathnur",1,13.1222276,77.6305669
Bangalore,"Seetharampalya, Hoodi","Bangalore, Seetharampalya, Hoodi",1,12.9855475,77.7122996
Bangalore,Seshadripuram,"Bangalore, Seshadripuram",2,12.9889055,77.574044
Bangalore,"Shamanna Garden, Wilson Garden","Bangalore, Shamanna Garden, Wilson Garden",1,12.948898,77.6000736
Bangalore,"Shampura, Kaval Byrasandra","Bangalore, Shampura, Kaval Byrasandra",1,13.0295386,77.6127996
Bangalore,Shanti Nagar,"Bangalore, Shanti Nagar",1,12.9577549,77.5992505
Bangalore,Shivaji Nagar,"Bangalore, Shivaji Nagar",3,12.9856503,77.6056927
Bangalore,"Shivananda Nagar, Vijayanagar","Bangalore, Shivananda Nagar, Vijayanagar",1,12.9699443,77.527188
Bangalore,Singahalli,"Bangalore, Singahalli",1,13.1616007,77.7235363
Bangalore,"Singasandra, Hosur Road","Bangalore, Singasandra, Hosur Road",2,12.8801357,77.6454227
Bangalore,"Sinthan Nagar, Thanisandra","Bangalore, Sinthan Nagar, Thanisandra",1,13.056014,77.632266
Bangalore,Sir M V Nagar,"Bangalore, Sir M V Nagar",1,13.0158042,77.6756392
Bangalore,Sivanchetti Gardens,"Bangalore, Sivanchetti Gardens",1,12.9796258,77.6140698
Bangalore,"Srinagar, Banashankari","Bangalore, Srinagar, Banashankari",2,12.9467756,77.5519109
Bangalore,"Srinivasa Nagar-Banashankari, Banashankari","Bangalore, Srinivasa Nagar-Banashankari, Banashankari",1,12.9356162,77.554777
Bangalore,Srinivaspura,"Bangalore, Srinivaspura",2,12.9000655,77.5113342
Bangalore,"State Bank Of India Colony, Hegganahalli","Bangalore, State Bank Of India Colony, Hegganahalli",1,13.003663,77.504498
Bangalore,"Subhash Nagar, Kengeri Satellite Town","Bangalore, Subhash Nagar, Kengeri Satellite Town",1,12.9265084,77.4831032
Bangalore,Subramanyapura,"Bangalore, Subramanyapura",2,12.8964518,77.5406717
Bangalore,Sun City Layout,"Bangalore, Sun City Layout",2,12.8859314,77.585941
Bangalore,Sunkadakatte,"Bangalore, Sunkadakatte",3,12.9918405,77.5046475
Bangalore,"Syndicate Bank Colony, Arakere","Bangalore, Syndicate Bank Colony, Arakere",1,12.8839093,77.5951852
Bangalore,T Dasarahalli,"Bangalore, T Dasarahalli",5,13.0507542,77.5154276
Bangalore,Talaghattapura,"Bangalore, Talaghattapura",1,12.8690867,77.534158
Bangalore,Tannery Road,"Bangalore, Tannery Road",1,13.004868,77.6122943
Bangalore,Thambuchetty Palya,"Bangalore, Thambuchetty Palya",1,13.0190631,77.7037131
Bangalore,Thammenahalli Apartmentge,"Bangalore, Thammenahalli Apartmentge",1,13.0734165,77.4831032
Bangalore,Thanisandra,"Bangalore, Thanisandra",5,13.0559193,77.6324513
Bangalore,"Tilak Nagar, Jayanagar, bannerghatta main Road","Bangalore, Tilak Nagar, Jayanagar, bannerghatta main Road",1,12.9254519,77.6003482
Bangalore,Tumkur Road,"Bangalore, Tumkur Road",2,13.0582654,77.4685501
Bangalore,"Udayanagar Extension, Mahadevapura","Bangalore, Udayanagar Extension, Mahadevapura",1,12.9901345,77.6713536
Bangalore,Ullal Main Road,"Bangalore, Ullal Main Road",1,12.9512941,77.4930298
Bangalore,Ullal Upnagar,"Bangalore, Ullal Upnagar",1,12.9600037,77.4759795
Bangalore,Ulsoor Road,"Bangalore, Ulsoor Road",1,12.9754162,77.6174259
Bangalore,Uttarahalli,"Bangalore, Uttarahalli",4,12.9069823,77.552059
Bangalore,Vaderahalli,"Bangalore, Vaderahalli",1,13.0958692,77.5375794
Bangalore,Varanasi,"Bangalore, Varanasi",2,12.9715987,77.5945627
Bangalore,Varthur,"Bangalore, Varthur",5,12.9388787,77.7412047
Bangalore,Vasanth Nagar,"Bangalore, Vasanth Nagar",1,12.9896194,77.5927948
Bangalore,"Venkateshappa Layout-Kammanahalli, Kammanahalli","Bangalore, Venkateshappa Layout-Kammanahalli, Kammanahalli",1,13.0130497,77.6374332
Bangalore,"Venkatpura, HSR Layout","Bangalore, Venkatpura, HSR Layout",1,12.9199543,77.6256895
Bangalore,Vibhutipura,"Bangalore, Vibhutipura",1,12.962353,77.6694675
Bangalore,Vidyaranyapura,"Bangalore, Vidyaranyapura",5,13.0810718,77.5561667
Bangalore,Vijay Enclave,"Bangalore, Vijay Enclave",1,12.8939696,77.6101141
Bangalore,"Vijaya Bank Colony -Bilekahalli, Bilekahalli","Bangalore, Vijaya Bank Colony -Bilekahalli, Bilekahalli",2,12.8902208,77.6092188
Bangalore,Vijaya Bank Layout,"Bangalore, Vijaya Bank Layout",1,12.8902208,77.6092188
Bangalore,Vijayanagar,"Bangalore, Vijayanagar",12,12.975596,77.5353881
Bangalore,"Vimanapura, Airport Road","Bangalore, Vimanapura, Airport Road",2,12.954806,77.684324
Bangalore,"Vinayak Nagar, Kattigenahalli","Bangalore, Vinayak Nagar, Kattigenahalli",1,13.1192944,77.6120835
Bangalore,"Vinayakanagar, Hebbal","Bangalore, Vinayakanagar, Hebbal",1,13.035499,77.5898807
Bangalore,"Virat Nagar, Bommanahalli","Bangalore, Virat Nagar, Bommanahalli",1,12.9041471,77.6199608
Bangalore,Virupakshapura,"Bangalore, Virupakshapura",1,13.0624973,77.570572
Bangalore,"Vishwapriya Nagar, Begur","Bangalore, Vishwapriya Nagar, Begur",1,12.8812268,77.6278377
Bangalore,"Vishweshwaraiah Layout, Annapurneshwari Nagar","Bangalore, Vishweshwaraiah Layout, Annapurneshwari Nagar",1,12.9639778,77.4972874
Bangalore,Visthar,"Bangalore, Visthar",1,13.0701427,77.6590526
Bangalore,"Vv Nagar, Bikasipura","Bangalore, Vv Nagar, Bikasipura",1,12.8896971,77.5540605
Bangalore,"Vyalikaval, Malleshwaram","Bangalore, Vyalikaval, Malleshwaram",1,13.004048,77.575562
Bangalore,Whitefield,"Bangalore, Whitefield",2,12.9698196,77.7499721
Bangalore,Wilson Garden,"Bangalore, Wilson Garden",1,12.9481933,77.5971865
Bangalore,Wilson garden Bangalore,"Bangalore, Wilson garden Bangalore",1,12.9481933,77.5971865
Bangalore,"Yelachenahalli, Kumaraswamy Layout, Kanakapura Road","Bangalore, Yelachenahalli, Kumaraswamy Layout, Kanakapura Road",1,12.9034291,77.5732123
Bangalore,Yelahanka,"Bangalore, Yelahanka",8,13.1154662,77.6069977
Bangalore,Yelahanka Dodda Ballapur Road,"Bangalore, Yelahanka Dodda Ballapur Road",1,13.1052398,77.5829693
Bangalore,Yelahanka New Town,"Bangalore, Yelahanka New Town",3,13.1042445,77.5713193
Bangalore,Yelechenahalli,"Bangalore, Yelechenahalli",1,12.9004352,77.5712222
Bangalore,Yemalur,"Bangalore, Yemalur",1,12.9446164,77.6836756
Bangalore,Yeshwantpur,"Bangalore, Yeshwantpur",6,13.0250302,77.5340242
Bangalore,in Bannerghatta Road,"Bangalore, in Bannerghatta Road",1,12.8394962,77.5888702
Bangalore,indiranagar near bda complex,"Bangalore, indiranagar near bda complex",1,12.9821969,77.6368872
Bangalore,snv la,"Bangalore, snv la",1,12.9715987,77.5945627
Bangalore,venkatapuram,"Bangalore, venkatapuram",1,12.9715987,77.5945627
Bangalore,whitefield,"Bangalore, whitefield",9,12.9698196,77.7499721
Chennai,355 konnur highroad Ayanavaram,"Chennai, 355 konnur highroad Ayanavaram",1,13.0977769,80.2395976
Chennai,5000,"Chennai, 5000",1,13.0826802,80.2707184
Chennai,58 block,"Chennai, 58 block",1,13.0826802,80.2707184
Chennai,AGS Colony-Velachery,"Chennai, AGS Colony-Velachery",2,12.9770395,80.2091603
Chennai,Abiramapuram,"Chennai, Abiramapuram",2,13.0311142,80.2579194
Chennai,Adambakkam,"Chennai, Adambakkam",7,12.9880288,80.2047133
Chennai,"Adyar, Sardar Patel Road","Chennai, Adyar, Sardar Patel Road",7,13.0068438,80.2503322
Chennai,"Adyar, Thiruvanmiyur, Chennai","Chennai, Adyar, Thiruvanmiyur, Chennai",1,12.9830269,80.2594001
Chennai,Alandur,"Chennai, Alandur",2,12.9974873,80.2006371
Chennai,"Alapakkam, Porur","Chennai, Alapakkam, Porur",1,13.0490314,80.1672782
Chennai,Alwarpet,"Chennai, Alwarpet",3,13.0334869,80.2531271
Chennai,Alwarthirunagar,"Chennai, Alwarthirunagar",1,13.0425511,80.1840192
Chennai,Ambattur,"Chennai, Ambattur",14,13.1143393,80.1547844
Chennai,"Ambattur Industrial Estate, Chennai Bypass Road","Chennai, Ambattur Industrial Estate, Chennai Bypass Road",1,13.0836773,80.1615786
Chennai,Ambattur railway station,"Chennai, Ambattur railway station",1,13.1142107,80.1527389
Chennai,"Aminjikarai, PH Road","Chennai, Aminjikarai, PH Road",3,13.0741319,80.2240666
Chennai,Anakaputhur,"Chennai, Anakaputhur",8,12.9801897,80.1264607
Chennai,Andal Nagar,"Chennai, Andal Nagar",1,12.980773,80.2072908
Chennai,Anna Nagar,"Chennai, Anna Nagar",7,13.0849557,80.2101342
Chennai,Anna Nagar East,"Chennai, Anna Nagar East",1,13.0920485,80.2236102
Chennai,Anna Nagar West,"Chennai, Anna Nagar West",2,13.0861782,80.2017906
Chennai,Anna Nagar West Extension,"Chennai, Anna Nagar West Extension",4,13.0911809,80.1930341
Chennai,Anna Nagar-Pammal,"Chennai, Anna Nagar-Pammal",1,12.9794936,80.1413945
Chennai,Annanagar East,"Chennai, Annanagar East",2,13.0920485,80.2236102
Chennai,Annanagar west,"Chennai, Annanagar west",1,13.0861782,80.2017906
Chennai,Arasankalani,"Chennai, Arasankalani",1,12.884743,80.2056382
Chennai,Arcot Road Virugambakkam,"Chennai, Arcot Road Virugambakkam",1,13.0466904,80.1938971
Chennai,Arumbakkam,"Chennai, Arumbakkam",6,13.0724233,80.2101773
Chennai,"Arunachalam Nagar, Madipakkam","Chennai, Arunachalam Nagar, Madipakkam",1,12.9596162,80.1887503
Chennai,Ashok Nagar,"Chennai, Ashok Nagar",7,13.0373222,80.2123115
Chennai,"Ask Nagar, Adambakkam","Chennai, Ask Nagar, Adambakkam",1,12.9918693,80.2080787
Chennai,Avadi,"Chennai, Avadi",1,13.1067448,80.0969511
Chennai,Ayanavaram,"Chennai, Ayanavaram",3,13.098634,80.2336945
Chennai,Ayappakkam,"Chennai, Ayappakkam",5,13.0983046,80.1366511
Chennai,"Ayyappa Nagar, Pallavaram","Chennai, Ayyappa Nagar, Pallavaram",1,12.9686741,80.140416
Chennai,BHEL Nagar-Medavakkam,"Chennai, BHEL Nagar-Medavakkam",1,12.9230328,80.1840192
Chennai,"Baby Nagar Extention, Velachery","Chennai, Baby Nagar Extention, Velachery",1,12.9748716,80.2289944
Chennai,Banu Nagar,"Chennai, Banu Nagar",1,13.1335227,80.1609995
Chennai,Besant Nagar,"Chennai, Besant Nagar",3,13.0002927,80.2666982
Chennai,"Bharath Nagar, Porur","Chennai, Bharath Nagar, Porur",1,13.0335681,80.1583832
Chennai,"Bharathidasan Colony, KK Nagar","Chennai, Bharathidasan Colony, KK Nagar",1,13.0330385,80.2052895
Chennai,"Bunder Garden, Perambur","Chennai, Bunder Garden, Perambur",1,13.1102838,80.2425869
Chennai,C.R.R. Puram L&T Colony,"Chennai, C.R.R. Puram L&T Colony",1,13.0164717,80.1708734
Chennai,CBI Colony,"Chennai, CBI Colony",1,12.965539,80.2434315
Chennai,CIT Nagar,"Chennai, CIT Nagar",1,13.0311989,80.2277232
Chennai,Camp Road,"Chennai, Camp Road",1,12.9068119,80.1425676
Chennai,"Central Bank Colony, Chromepet","Chennai, Central Bank Colony, Chromepet",1,12.9597439,80.1393692
Chennai,Chembarambakkam,"Chennai, Chembarambakkam",1,13.0114448,80.0590804
Chennai,Chennai,"Chennai, Chennai",2,13.0826802,80.2707184
Chennai,"Chetpet, PH Road","Chennai, Chetpet, PH Road",3,13.0775658,80.2422127
Chennai,Chinna Porur,"Chennai, Chinna Porur",1,13.0355233,80.1680932
Chennai,Chintadripet,"Chennai, Chintadripet",1,13.0749917,80.2697653
Chennai,Chitlapakkam,"Chennai, Chitlapakkam",3,12.9369552,80.1389466
Chennai,Choolaimedu,"Chennai, Choolaimedu",11,13.0632365,80.2249919
Chennai,Choolaimedu High Road,"Chennai, Choolaimedu High Road",1,13.0615656,80.2302044
Chennai,"Chromepet, GST Road","Chennai, Chromepet, GST Road",15,12.8989664,80.0907992
Chennai,Cmbt,"Chennai, Cmbt",1,13.0674395,80.2054888
Chennai,"Devi Karumariamman Nagar, Velachery","Chennai, Devi Karumariamman Nagar, Velachery",1,12.9743459,80.2150512
Chennai,Dr Ranga Road,"Chennai, Dr Ranga Road",1,13.0330746,80.2603755
Chennai,Duraisamy Nagar,"Chennai, Duraisamy Nagar",1,13.0134534,80.2425869
Chennai,East Coast Road,"Chennai, East Coast Road",1,12.9241511,80.2510899
Chennai,"Egmore, PH Road","Chennai, Egmore, PH Road",2,13.079656,80.2604649
Chennai,Elango Nagar-Virugambakkam,"Chennai, Elango Nagar-Virugambakkam",1,13.0537182,80.1906046
Chennai,Ennore,"Chennai, Ennore",1,13.2145944,80.3202929
Chennai,"Erukkancheri, Kodungaiyur West","Chennai, Erukkancheri, Kodungaiyur West",1,13.127733,80.2484696
Chennai,G S T Road,"Chennai, G S T Road",1,12.9974663,80.1908107
Chennai,"Ganapathipuram, Chromepet","Chennai, Ganapathipuram, Chromepet",1,12.9538463,80.1526271
Chennai,Gandhi Nagar Adyar,"Chennai, Gandhi Nagar Adyar",1,13.0096046,80.2513351
Chennai,"George Town, PH Road","Chennai, George Town, PH Road",1,13.0509221,80.0942138
Chennai,Gopalapuram,"Chennai, Gopalapuram",2,13.0489376,80.2586162
Chennai,"Gowrivakkam, Sembakkam","Chennai, Gowrivakkam, Sembakkam",1,12.9203428,80.1654022
Chennai,Guduvancheri,"Chennai, Guduvancheri",4,12.8438835,80.0597364
Chennai,Guindy,"Chennai, Guindy",1,13.0066625,80.2206369
Chennai,"Guindy Race Course, Guindy","Chennai, Guindy Race Course, Guindy",1,13.0086279,80.2147158
Chennai,Harrington Road,"Chennai, Harrington Road",1,13.0693921,80.2370445
Chennai,Housing Board,"Chennai, Housing Board",1,13.0320664,80.224183
Chennai,Indira Colony,"Chennai, Indira Colony",1,13.0338595,80.2119863
Chennai,Indra Nagar,"Chennai, Indra Nagar",1,12.9974154,80.2513195
Chennai,Injambakkam,"Chennai, Injambakkam",1,12.9197836,80.2511237
Chennai,Irumbuliyur,"Chennai, Irumbuliyur",2,12.9172182,80.1077205
Chennai,Iyyappanthangal,"Chennai, Iyyappanthangal",17,13.0380617,80.1353549
Chennai,"Iyyappanthangal Bus Stop, Iyyappanthangal, PH Road","Chennai, Iyyappanthangal Bus Stop, Iyyappanthangal, PH Road",1,13.0390838,80.1324427
Chennai,Jafferkhanpet,"Chennai, Jafferkhanpet",1,13.029936,80.2048005
Chennai,Jalladian Pet,"Chennai, Jalladian Pet",3,12.9178174,80.1965728
Chennai,Jawahar Nagar,"Chennai, Jawahar Nagar",2,13.1108545,80.2274314
Chennai,"Jaya Nagar, Porur, Chennai Bypass Road","Chennai, Jaya Nagar, Porur, Chennai Bypass Road",1,13.0341259,80.148918
Chennai,Jyothi Nagar-Ekkatuthangal,"Chennai, Jyothi Nagar-Ekkatuthangal",1,13.0236274,80.2011056
Chennai,KK Nagar,"Chennai, KK Nagar",5,13.0410013,80.1993919
Chennai,"KK Nagar West, KK Nagar","Chennai, KK Nagar West, KK Nagar",1,13.0407075,80.1916911
Chennai,Kailasapuram-Mylapore,"Chennai, Kailasapuram-Mylapore",1,13.0418159,80.2774294
Chennai,Kalavakkam,"Chennai, Kalavakkam",2,12.7416581,80.1970483
Chennai,Kallikuppam,"Chennai, Kallikuppam",1,13.136693,80.169371
Chennai,"Kamakoti Nagar, Pallikaranai","Chennai, Kamakoti Nagar, Pallikaranai",2,12.9411513,80.2119136
Chennai,"Kamakshiamman Nagar Layout, Iyyappanthangal","Chennai, Kamakshiamman Nagar Layout, Iyyappanthangal",1,13.0276127,80.1282031
Chennai,"Kamaraj Nagar-Thiruvanmiyur, E Coast Road","Chennai, Kamaraj Nagar-Thiruvanmiyur, E Coast Road",1,12.9875761,80.2561185
Chennai,Kamarajar Salai,"Chennai, Kamarajar Salai",1,13.0512765,80.1969094
Chennai,Kambar Colony,"Chennai, Kambar Colony",1,13.0955829,80.2025003
Chennai,Kambar Nagar-Kolathur,"Chennai, Kambar Nagar-Kolathur",1,13.1196968,80.2185372
Chennai,Kanathur Reddikuppam,"Chennai, Kanathur Reddikuppam",1,12.8510939,80.2412313
Chennai,"Kannan Colony, Pazhavanthangal","Chennai, Kannan Colony, Pazhavanthangal",2,12.9898011,80.1858946
Chennai,"Karambakkam, Porur","Chennai, Karambakkam, Porur",1,13.0376186,80.1531887
Chennai,Karanai,"Chennai, Karanai",1,12.8589456,80.2000596
Chennai,Karapakkam,"Chennai, Karapakkam",3,12.9190519,80.2300343
Chennai,Kasi Estate,"Chennai, Kasi Estate",1,13.0298253,80.2075237
Chennai,Kasturibai Nagar,"Chennai, Kasturibai Nagar",1,13.0053449,80.2501523
Chennai,"Kattupakkam, PH Road","Chennai, Kattupakkam, PH Road",5,13.0476766,80.1200972
Chennai,Kayarambedu,"Chennai, Kayarambedu",2,12.8030189,80.0688713
Chennai,Kazhipattur,"Chennai, Kazhipattur",1,12.8235807,80.2310428
Chennai,Keelkatalai,"Chennai, Keelkatalai",1,12.9556074,80.1868681
Chennai,Keelkattalai,"Chennai, Keelkattalai",3,12.9556074,80.1868681
Chennai,"Kelambakkam, Old Mahabalipuram Road","Chennai, Kelambakkam, Old Mahabalipuram Road",8,12.8337845,80.2286477
Chennai,Kellys,"Chennai, Kellys",1,13.0857691,80.2443525
Chennai,"Kesari Nagar, Adambakkam","Chennai, Kesari Nagar, Adambakkam",1,12.9832294,80.1975821
Chennai,Khurunjis zinnia Apartment Homes at Thambaram west,"Chennai, Khurunjis zinnia Apartment Homes at Thambaram west",1,12.9149851,80.098207
Chennai,Kilpauk,"Chennai, Kilpauk",2,13.0828318,80.2417105
Chennai,Kodambakkam,"Chennai, Kodambakkam",8,13.0521019,80.2255286
Chennai,Kodungaiyur East,"Chennai, Kodungaiyur East",2,13.1300731,80.2572225
Chennai,Kodungaiyur West,"Chennai, Kodungaiyur West",1,13.1374551,80.2478495
Chennai,Kolapakkam - Vandalur-Kelambakkam Road,"Chennai, Kolapakkam - Vandalur-Kelambakkam Road",1,12.8688396,80.1113862
Chennai,Kolathur,"Chennai, Kolathur",11,13.1239583,80.2121332
Chennai,"Korattur, Jawaharlal Nehru Road","Chennai, Korattur, Jawaharlal Nehru Road",6,13.1111262,80.1970912
Chennai,Kovilambakkam,"Chennai, Kovilambakkam",5,12.940865,80.1850596
Chennai,Kovilancheri,"Chennai, Kovilancheri",1,12.8809869,80.1702662
Chennai,Kovur,"Chennai, Kovur",5,13.0108473,80.1177335
Chennai,Koyambedu,"Chennai, Koyambedu",4,13.0693568,80.1948314
Chennai,"Krishna Nagar-Chromepet, Chromepet","Chennai, Krishna Nagar-Chromepet, Chromepet",1,12.9416245,80.1491384
Chennai,"Kubera Nagar, Madipakkam","Chennai, Kubera Nagar, Madipakkam",1,12.9580114,80.2063355
Chennai,"Kundrathur, Pallavaram Kundrathur Main Road","Chennai, Kundrathur, Pallavaram Kundrathur Main Road",2,12.997987,80.1037103
Chennai,Kuthanur,"Chennai, Kuthanur",1,12.8237769,80.0213538
Chennai,"Lake Area, Nungambakkam","Chennai, Lake Area, Nungambakkam",1,13.0565057,80.240306
Chennai,Lanchor Abode valley,"Chennai, Lanchor Abode valley",1,12.817291,80.0402619
Chennai,"Loganathan Colony, Mylapore","Chennai, Loganathan Colony, Mylapore",1,13.0427131,80.2729007
Chennai,"Luz, Mylapore","Chennai, Luz, Mylapore",1,13.0399719,80.2662814
Chennai,"MAHA BUILDERS, SAIMAA CASTLE, VELACHERY","Chennai, MAHA BUILDERS, SAIMAA CASTLE, VELACHERY",1,12.9815179,80.2179755
Chennai,Madambakkam,"Chennai, Madambakkam",8,12.9033179,80.158544
Chennai,Madanankppam,"Chennai, Madanankppam",1,13.1341563,80.1871065
Chennai,"Madhavaram, Guntur Chennai Highway","Chennai, Madhavaram, Guntur Chennai Highway",3,13.1458495,80.2182101
Chennai,Madipakkam,"Chennai, Madipakkam",19,12.9647462,80.1960832
Chennai,Maduravoyal,"Chennai, Maduravoyal",3,13.0655842,80.1607768
Chennai,Mahindra World City,"Chennai, Mahindra World City",6,13.0826802,80.2707184
Chennai,Mambakkam,"Chennai, Mambakkam",1,12.8385371,80.1697145
Chennai,Mambalam West,"Chennai, Mambalam West",7,13.0382876,80.2209499
Chennai,"Manali, Manali High Road","Chennai, Manali, Manali High Road",1,13.1759738,80.2822632
Chennai,Manapakkam,"Chennai, Manapakkam",1,13.0212637,80.1832458
Chennai,Mandaiveli,"Chennai, Mandaiveli",2,13.0279117,80.2605137
Chennai,Mangadu,"Chennai, Mangadu",8,13.027018,80.1107349
Chennai,Manikandan Nagar,"Chennai, Manikandan Nagar",1,12.9442611,80.1812293
Chennai,Mannivakkam,"Chennai, Mannivakkam",3,12.8941073,80.0642922
Chennai,"Mappedu, Selaiyur","Chennai, Mappedu, Selaiyur",1,12.888592,80.1379736
Chennai,Mathur,"Chennai, Mathur",2,13.1714128,80.2454539
Chennai,"Mattan Kuppam, Triplicane","Chennai, Mattan Kuppam, Triplicane",1,13.0530332,80.2794137
Chennai,Medavakkam,"Chennai, Medavakkam",17,12.9171427,80.1923489
Chennai,Menambedu,"Chennai, Menambedu",1,13.1206712,80.1647503
Chennai,Mogappair East,"Chennai, Mogappair East",4,13.0810113,80.1840177
Chennai,Mogappair West,"Chennai, Mogappair West",3,13.0805983,80.1687714
Chennai,"Moulivakkam, Moulivakkam","Chennai, Moulivakkam, Moulivakkam",2,13.0214925,80.1443233
Chennai,Mudichur,"Chennai, Mudichur",1,12.9149904,80.0720171
Chennai,Mugalivakkam,"Chennai, Mugalivakkam",6,13.0209529,80.1613511
Chennai,Mylapore,"Chennai, Mylapore",6,13.0367914,80.2676303
Chennai,N G O nagar extn ponneri,"Chennai, N G O nagar extn ponneri",1,13.3315683,80.1944807
Chennai,Nandambakkam,"Chennai, Nandambakkam",3,12.9823761,80.0602645
Chennai,Nandanam,"Chennai, Nandanam",1,13.0300493,80.2421383
Chennai,Nandanam Extension,"Chennai, Nandanam Extension",2,13.0276883,80.2425869
Chennai,Nandivaram-Guduvancheri,"Chennai, Nandivaram-Guduvancheri",1,12.8362244,80.0658798
Chennai,Nanganallur,"Chennai, Nanganallur",3,12.9807418,80.1882363
Chennai,Nanmangalam,"Chennai, Nanmangalam",4,12.940278,80.1784835
Chennai,"Narayanapuram, Kovilambakkam","Chennai, Narayanapuram, Kovilambakkam",1,12.9428728,80.2057423
Chennai,Navalur,"Chennai, Navalur",4,12.8459348,80.2265229
Chennai,Near Jeyachandran textiles,"Chennai, Near Jeyachandran textiles",1,13.0826802,80.2707184
Chennai,"Neelankarai, E Coast Road","Chennai, Neelankarai, E Coast Road",2,12.948204,80.2491972
Chennai,"Nemilichery, Chromepet","Chennai, Nemilichery, Chromepet",3,12.9485798,80.1637901
Chennai,Nesapakkam,"Chennai, Nesapakkam",2,13.0379385,80.1919681
Chennai,Nest bliss sholinganallur,"Chennai, Nest bliss sholinganallur",1,12.896558,80.226837
Chennai,New Kumaran Nagar,"Chennai, New Kumaran Nagar",1,12.9036407,80.2356167
Chennai,New Perungalathur,"Chennai, New Perungalathur",3,12.9051906,80.0951024
Chennai,Nungambakkam,"Chennai, Nungambakkam",4,13.0569467,80.242469
Chennai,"Okkiyam Thuraipakkam, E Coast Road","Chennai, Okkiyam Thuraipakkam, E Coast Road",2,12.94166745,80.23708735
Chennai,Old Mahabalipuram Road,"Chennai, Old Mahabalipuram Road",13,12.8337845,80.2286477
Chennai,"Old Pallavaram, Alandur","Chennai, Old Pallavaram, Alandur",1,12.9974873,80.2006371
Chennai,Old Washermanpet,"Chennai, Old Washermanpet",5,13.1148236,80.2871828
Chennai,Oliyas Green court,"Chennai, Oliyas Green court",1,12.9184868,80.199093
Chennai,Oragadam,"Chennai, Oragadam",3,13.129026,80.1548021
Chennai,Oragadam Sriperumbudur,"Chennai, Oragadam Sriperumbudur",1,12.6482834,80.0386783
Chennai,Pachaiyamman Nagar,"Chennai, Pachaiyamman Nagar",1,12.9712339,80.1609995
Chennai,Padapai,"Chennai, Padapai",2,12.8865824,80.0216481
Chennai,"Paddy field street,Perambur","Chennai, Paddy field street,Perambur",1,13.1116737,80.2494218
Chennai,"Padur, Old Mahabalipuram Road","Chennai, Padur, Old Mahabalipuram Road",9,12.8337845,80.2286477
Chennai,"Palavakkam, E Coast Road","Chennai, Palavakkam, E Coast Road",1,12.9598431,80.2612764
Chennai,Pallavan Nagar-Thiruverkadu,"Chennai, Pallavan Nagar-Thiruverkadu",1,13.0717394,80.1282031
Chennai,Pallavaram,"Chennai, Pallavaram",5,12.9675069,80.1490955
Chennai,Pallikaranai,"Chennai, Pallikaranai",8,12.9348912,80.2137124
Chennai,Pammal,"Chennai, Pammal",7,12.9749128,80.1327824
Chennai,"Panaiyur, E Coast Road","Chennai, Panaiyur, E Coast Road",1,12.8885585,80.245389
Chennai,Pattabiram,"Chennai, Pattabiram",2,13.123097,80.0593473
Chennai,"Pazhavanthangal, Jawaharlal Nehru Road","Chennai, Pazhavanthangal, Jawaharlal Nehru Road",1,13.0644833,80.2115342
Chennai,Perambur,"Chennai, Perambur",7,13.1210302,80.2325781
Chennai,Periyamet,"Chennai, Periyamet",1,13.0828932,80.2660285
Chennai,Perumbakkam,"Chennai, Perumbakkam",7,12.8923157,80.1888917
Chennai,"Perungalathur, Chennai Bypass Road","Chennai, Perungalathur, Chennai Bypass Road",14,13.0306382,80.1480253
Chennai,Perungudi,"Chennai, Perungudi",3,12.9653652,80.2461057
Chennai,Polacheri,"Chennai, Polacheri",1,12.8425271,80.1791368
Chennai,Ponmar,"Chennai, Ponmar",1,12.8564248,80.1707662
Chennai,Ponneri,"Chennai, Ponneri",1,13.3339385,80.1943279
Chennai,"Ponniamman Nagar, Iyyappanthangal","Chennai, Ponniamman Nagar, Iyyappanthangal",1,13.0279326,80.1365778
Chennai,Ponniammanmedu,"Chennai, Ponniammanmedu",3,13.1349662,80.2274201
Chennai,Poonamalle,"Chennai, Poonamalle",2,13.0472609,80.0945307
Chennai,Poonamallee,"Chennai, Poonamallee",4,13.0472609,80.0945307
Chennai,Poongavanapuram,"Chennai, Poongavanapuram",1,13.0806887,80.2697653
Chennai,Porur,"Chennai, Porur",12,13.0381896,80.1565461
Chennai,Porur Gardens,"Chennai, Porur Gardens",1,13.0456521,80.1533249
Chennai,"Potheri, Kattankulathur","Chennai, Potheri, Kattankulathur",1,12.8251592,80.0404981
Chennai,Prashant Collony Extension,"Chennai, Prashant Collony Extension",1,12.933208,80.1588253
Chennai,Prestige Bellavista,"Chennai, Prestige Bellavista",1,13.0397546,80.1316621
Chennai,Pudupakkam,"Chennai, Pudupakkam",3,13.0598649,80.2687656
Chennai,Pudur,"Chennai, Pudur",1,13.1299346,80.1603018
Chennai,Purasaiwakkam,"Chennai, Purasaiwakkam",2,13.0902242,80.2542716
Chennai,"Purasawalkam, PH Road","Chennai, Purasawalkam, PH Road",6,13.0788712,80.2534885
Chennai,"Pushpa Colony, Saligramam","Chennai, Pushpa Colony, Saligramam",1,13.0521779,80.2031976
Chennai,"Puzhuthivakkam, Madipakkam","Chennai, Puzhuthivakkam, Madipakkam",1,12.9697839,80.1942823
Chennai,"R.A Puram, Mandaiveli","Chennai, R.A Puram, Mandaiveli",2,13.0293123,80.2689582
Chennai,"RE Nagar, Porur","Chennai, RE Nagar, Porur",1,13.0314714,80.1547203
Chennai,"Radha Nagar, Chrompet","Chennai, Radha Nagar, Chrompet",1,12.953536,80.1443901
Chennai,Raja Annamalai Puram,"Chennai, Raja Annamalai Puram",2,13.0189785,80.2628823
Chennai,"Rajakilpakkam, Selaiyur","Chennai, Rajakilpakkam, Selaiyur",1,12.9177246,80.1556572
Chennai,"Rajakipakkam, Sembakkam","Chennai, Rajakipakkam, Sembakkam",1,12.9234492,80.1587694
Chennai,"Ram Nagar South Extension, Madipakkam","Chennai, Ram Nagar South Extension, Madipakkam",1,12.9617521,80.2112164
Chennai,Ram Nagar-Nanganallur,"Chennai, Ram Nagar-Nanganallur",1,12.9838844,80.1944807
Chennai,Ramapuram,"Chennai, Ramapuram",3,13.0317443,80.1816719
Chennai,Ranganathapuram-Medavakkam,"Chennai, Ranganathapuram-Medavakkam",1,12.9187665,80.1840192
Chennai,Rani Anna Nagar,"Chennai, Rani Anna Nagar",1,13.0704,80.2143539
Chennai,Redhills,"Chennai, Redhills",1,13.1864645,80.1998776
Chennai,Royapettah,"Chennai, Royapettah",4,13.0539587,80.2640711
Chennai,S.Kolathur,"Chennai, S.Kolathur",2,12.9498453,80.1972702
Chennai,Sadasiva Nagar Madipakkam,"Chennai, Sadasiva Nagar Madipakkam",1,12.9640567,80.203685
Chennai,Sadhanadhapuram,"Chennai, Sadhanadhapuram",2,12.8969501,80.1096504
Chennai,Saidapet,"Chennai, Saidapet",2,13.0212805,80.2231037
Chennai,"Saidapet West, Saidapet","Chennai, Saidapet West, Saidapet",1,13.0217308,80.2167942
Chennai,"Sakthi Nagar, Adambakkam","Chennai, Sakthi Nagar, Adambakkam",1,12.9806002,80.2034911
Chennai,"Santhosapuram, Medavakkam","Chennai, Santhosapuram, Medavakkam",2,12.9158691,80.1733834
Chennai,"Saraswathi Nagar-Neelankarai, Neelankarai, E Coast Road","Chennai, Saraswathi Nagar-Neelankarai, Neelankarai, E Coast Road",1,12.948204,80.2491972
Chennai,Selaiyur,"Chennai, Selaiyur",7,12.9068283,80.1425181
Chennai,Sembakkam,"Chennai, Sembakkam",4,12.9234492,80.1587694
Chennai,Semmancheri,"Chennai, Semmancheri",4,12.8601432,80.2272254
Chennai,Semmenchery,"Chennai, Semmenchery",1,12.8601432,80.2272254
Chennai,"Shenoy Nagar, PH Road","Chennai, Shenoy Nagar, PH Road",1,13.0509221,80.0942138
Chennai,Sholinganallur,"Chennai, Sholinganallur",15,12.9009877,80.2279301
Chennai,Sikkarayapuram,"Chennai, Sikkarayapuram",1,13.0150295,80.102987
Chennai,"Singaperumal Koil, Tiruchi Chennai Highway","Chennai, Singaperumal Koil, Tiruchi Chennai Highway",2,12.7593029,80.0032944
Chennai,Siruseri,"Chennai, Siruseri",3,12.8352188,80.2010804
Chennai,Sithalapakkam,"Chennai, Sithalapakkam",3,12.8820003,80.1924529
Chennai,Sivalingapuram,"Chennai, Sivalingapuram",1,13.0406047,80.20773
Chennai,Sriperumbudur,"Chennai, Sriperumbudur",1,12.9624975,79.9452748
Chennai,"Subramaniya Swamy Nagar, Valasaravakkam, Arcot Road","Chennai, Subramaniya Swamy Nagar, Valasaravakkam, Arcot Road",1,13.0411165,80.1737086
Chennai,"Suriyammapet, Saidapet","Chennai, Suriyammapet, Saidapet",1,13.0226272,80.2216745
Chennai,T Nagar,"Chennai, T Nagar",6,13.0417591,80.2340761
Chennai,T.Nagar,"Chennai, T.Nagar",1,13.0417591,80.2340761
Chennai,"TTK Nagar, Tambaram","Chennai, TTK Nagar, Tambaram",1,12.9180974,80.1006305
Chennai,Tambaram East,"Chennai, Tambaram East",5,12.920826,80.1306304
Chennai,Tambaram Sanatorium,"Chennai, Tambaram Sanatorium",1,12.9391982,80.1320416
Chennai,"Tambaram West, Tambaram, Chennai Bypass Road","Chennai, Tambaram West, Tambaram, Chennai Bypass Road",5,12.942437,80.1043038
Chennai,"Tambaram, GST Road","Chennai, Tambaram, GST Road",6,12.9033112,80.094179
Chennai,Teachers's Colony-Lakshmipuram,"Chennai, Teachers's Colony-Lakshmipuram",1,13.130288,80.202363
Chennai,Teynampet,"Chennai, Teynampet",2,13.0404742,80.2503335
Chennai,Thalambur,"Chennai, Thalambur",5,12.8549426,80.2070328
Chennai,Thandalam,"Chennai, Thandalam",1,13.0009073,80.1194295
Chennai,"Thanikachalam Nagar, Ponniammanmedu","Chennai, Thanikachalam Nagar, Ponniammanmedu",1,13.1302152,80.2253316
Chennai,Tharamani,"Chennai, Tharamani",2,12.986279,80.2432487
Chennai,"Thillai Ganga Nagar, Nanganallur","Chennai, Thillai Ganga Nagar, Nanganallur",1,12.9897913,80.1937527
Chennai,Thirumangalam-Anna Nagar West,"Chennai, Thirumangalam-Anna Nagar West",1,13.0865526,80.1963436
Chennai,Thirumazhisai,"Chennai, Thirumazhisai",2,13.0525053,80.0603235
Chennai,Thirumullaivoyal,"Chennai, Thirumullaivoyal",2,13.1307405,80.1314386
Chennai,Thirunagar,"Chennai, Thirunagar",1,13.0291106,80.2049409
Chennai,Thiruneermalai,"Chennai, Thiruneermalai",1,12.9581202,80.1192281
Chennai,Thiruporur,"Chennai, Thiruporur",1,12.7368909,80.1651854
Chennai,Thiruvanmiyur,"Chennai, Thiruvanmiyur",9,12.9830269,80.2594001
Chennai,Thiruverkkadu,"Chennai, Thiruverkkadu",2,13.0734416,80.1269236
Chennai,Thoraipakkam,"Chennai, Thoraipakkam",8,12.9416037,80.2362096
Chennai,"Tirumudivakkam, Thiruvanmiyur","Chennai, Tirumudivakkam, Thiruvanmiyur",1,12.9856156,80.2687202
Chennai,Tiruvallur,"Chennai, Tiruvallur",1,13.0826802,80.2707184
Chennai,"Tiruvallur, Kakkalur, Chennai","Chennai, Tiruvallur, Kakkalur, Chennai",1,13.1266657,79.9188237
Chennai,Tiruvenkadam Nagar,"Chennai, Tiruvenkadam Nagar",1,13.1165259,80.1449518
Chennai,Tiruvottiyur,"Chennai, Tiruvottiyur",5,13.1642598,80.3001413
Chennai,"Tondiarpet, Ennore High Road","Chennai, Tondiarpet, Ennore High Road",1,13.1334092,80.2801238
Chennai,Triplicane,"Chennai, Triplicane",2,13.0587654,80.2756297
Chennai,"Ullagaram, Pallavaram-Thuraipakkam Road","Chennai, Ullagaram, Pallavaram-Thuraipakkam Road",1,12.9499521,80.1800612
Chennai,"Urapakkam, Vandalur R.F, GST Road","Chennai, Urapakkam, Vandalur R.F, GST Road",8,12.864294,80.0742886
Chennai,Uthandi,"Chennai, Uthandi",1,12.8693359,80.2435124
Chennai,"VGP Seethapathy Nagar, Velachery","Chennai, VGP Seethapathy Nagar, Velachery",1,12.9815649,80.2272516
Chennai,Vadapalani,"Chennai, Vadapalani",15,13.0499711,80.2121306
Chennai,"Valasaravakkam, Arcot Road","Chennai, Valasaravakkam, Arcot Road",11,13.04678,80.1941209
Chennai,Vandalur,"Chennai, Vandalur",2,12.8912559,80.0810009
Chennai,Varadharajapuram,"Chennai, Varadharajapuram",1,12.9272663,80.2046413
Chennai,Veerapuram,"Chennai, Veerapuram",1,13.1839045,80.0821275
Chennai,Velachery,"Chennai, Velachery",22,12.9815179,80.2179755
Chennai,"Vengaivasal, Medavakkam","Chennai, Vengaivasal, Medavakkam",2,12.9190819,80.1923885
Chennai,"Venkateshwara Nagar, Ramapuram, PH Road","Chennai, Venkateshwara Nagar, Ramapuram, PH Road",1,13.0674865,80.1777642
Chennai,"Vetri Nagar, Perambur","Chennai, Vetri Nagar, Perambur",1,13.1229444,80.2289944
Chennai,"Villivakkam, Jawaharlal Nehru Road","Chennai, Villivakkam, Jawaharlal Nehru Road",4,13.1092652,80.1965749
Chennai,"Vimalapuram, Manali","Chennai, Vimalapuram, Manali",1,13.170112,80.257402
Chennai,Virugambakkam,"Chennai, Virugambakkam",6,13.0532086,80.1922278
Chennai,Vivekanathanagar kolathur,"Chennai, Vivekanathanagar kolathur",1,13.1228828,80.1993623
Chennai,Washermanpet,"Chennai, Washermanpet",1,13.1148236,80.2871828
Chennai,YES YES SARAS,"Chennai, YES YES SARAS",1,13.0826802,80.2707184
Chennai,"Zamin Pallavaram, Pallavaram","Chennai, Zamin Pallavaram, Pallavaram",2,12.963671,80.1627157
Chennai,besant nagar Chennai,"Chennai, besant nagar Chennai",1,13.0002927,80.2666982
Chennai,chettipunniyam,"Chennai, chettipunniyam",1,12.7447074,79.990889
Chennai,in Saligramam,"Chennai, in Saligramam",1,13.0545488,80.2011306
Chennai,independent Apartment dhandeeshwatam nagar velachery,"Chennai, independent Apartment dhandeeshwatam nagar velachery",1,12.9815179,80.2179755
Chennai,kumari neo town,"Chennai, kumari neo town",1,13.0826802,80.2707184
Chennai,mahindra city,"Chennai, mahindra city",1,13.07981269,80.25125197
Chennai,rajakillpakkam,"Chennai, rajakillpakkam",1,12.9670467,80.1725101
Chennai,rgl bungalows,"Chennai, rgl bungalows",1,13.0146583,80.1616971
Chennai,sspdl Mayfair,"Chennai, sspdl Mayfair",1,12.8445797,80.210317
Chennai,venkatesa perumal nagar,"Chennai, venkatesa perumal nagar",1,13.0432604,80.1746028
Chennai,villvam towers tnhb colony,"Chennai, villvam towers tnhb colony",1,13.1036831,80.2010962
Delhi,"AGCR Enclave, Anand Vihar","Delhi, AGCR Enclave, Anand Vihar",3,28.6523234,77.297191
Delhi,"Acharya Niketan, Mayur Vihar","Delhi, Acharya Niketan, Mayur Vihar",1,28.6081393,77.2947467
Delhi,Adarsh Nagar,"Delhi, Adarsh Nagar",1,28.7192604,77.173582
Delhi,"Amar Colony, Lajpat Nagar","Delhi, Amar Colony, Lajpat Nagar",2,28.5617318,77.242679
Delhi,Amarpali Apartment,"Delhi, Amarpali Apartment",1,28.6315488,77.3053386
Delhi,Anand Parbat,"Delhi, Anand Parbat",1,28.6649414,77.1747773
Delhi,"Arjun Garh, Aya Nagar","Delhi, Arjun Garh, Aya Nagar",1,28.475239,77.1175451
Delhi,"Arjun Nagar, Safdarjung Enclave","Delhi, Arjun Nagar, Safdarjung Enclave",10,28.560589,77.1981184
Delhi,Ashok Nagar,"Delhi, Ashok Nagar",1,28.6373773,77.1014442
Delhi,Ashok Vihar Phase 2,"Delhi, Ashok Vihar Phase 2",1,28.6958633,77.1736794
Delhi,"Ashoka Enclave Apartment, Dwarka Sector 11","Delhi, Ashoka Enclave Apartment, Dwarka Sector 11",1,28.5885439,77.0506473
Delhi,Aya Nagar,"Delhi, Aya Nagar",3,28.4720443,77.1329417
Delhi,Aya Nagar Extension,"Delhi, Aya Nagar Extension",1,28.4571023,77.1283821
Delhi,B-7 veer Singh colony Budh vihar phase 2 delhi,"Delhi, B-7 veer Singh colony Budh vihar phase 2 delhi",1,28.7164624,77.0863049
Delhi,Badarpur,"Delhi, Badarpur",1,28.5102495,77.2985884
Delhi,"Baljit Nagar, Patel Nagar","Delhi, Baljit Nagar, Patel Nagar",1,28.6570858,77.1610719
Delhi,Ber Sarai,"Delhi, Ber Sarai",1,28.54878,77.1815314
Delhi,Bhagwati Garden,"Delhi, Bhagwati Garden",1,28.624531,77.0349204
Delhi,Bhajanpura,"Delhi, Bhajanpura",2,28.7004534,77.2591938
Delhi,Bhalswa,"Delhi, Bhalswa",1,28.755097,77.1604439
Delhi,"Bharthal, Dwarka","Delhi, Bharthal, Dwarka",1,28.5428042,77.0491436
Delhi,"Bhogal, Jangpura","Delhi, Bhogal, Jangpura",1,28.584023,77.2484181
Delhi,Bijwasan,"Delhi, Bijwasan",1,28.5325722,77.0530452
Delhi,Bindapur,"Delhi, Bindapur",2,28.6104122,77.0686162
Delhi,Burari,"Delhi, Burari",3,28.7582634,77.1946018
Delhi,Cghs apts.,"Delhi, Cghs apts.",1,28.5880138,77.0620669
Delhi,"Chanakya Place, Sitapuri","Delhi, Chanakya Place, Sitapuri",1,28.6099353,77.0790206
Delhi,Chattarpur Extension,"Delhi, Chattarpur Extension",2,28.4894452,77.1815867
Delhi,Cherlopalli TIRUPATI,"Delhi, Cherlopalli TIRUPATI",1,28.5502271,77.17939327
Delhi,Chhattarpur,"Delhi, Chhattarpur",14,28.4958562,77.1848254
Delhi,Chhattarpur Enclave,"Delhi, Chhattarpur Enclave",10,28.5017782,77.1879442
Delhi,"Chhattarpur Enclave Phase1, Chhattarpur","Delhi, Chhattarpur Enclave Phase1, Chhattarpur",1,28.4997983,77.1923685
Delhi,Chirag Delhi,"Delhi, Chirag Delhi",1,28.5376318,77.2282863
Delhi,"Chitra Vihar, Swasthya Vihar","Delhi, Chitra Vihar, Swasthya Vihar",1,28.6425205,77.286847
Delhi,Chittaranjan Park,"Delhi, Chittaranjan Park",4,28.5397842,77.2489726
Delhi,Chittaranjan Park Block B,"Delhi, Chittaranjan Park Block B",1,28.5421563,77.2455444
Delhi,Chittaranjan Park Block K,"Delhi, Chittaranjan Park Block K",1,28.5390228,77.2446464
Delhi,"DDA Akshardham Apartments, DS 19","Delhi, DDA Akshardham Apartments, DS 19",1,28.5900715,77.1300725
Delhi,"DDA Devdoot Apartment, Vikaspuri","Delhi, DDA Devdoot Apartment, Vikaspuri",1,28.6384461,77.0636392
Delhi,"DDA Flat AD Block, Shalimar Bagh AD Block","Delhi, DDA Flat AD Block, Shalimar Bagh AD Block",1,28.704611,77.169742
Delhi,"DDA Flats Block B3, Keshav Puram, Tri Nagar","Delhi, DDA Flats Block B3, Keshav Puram, Tri Nagar",1,28.6894476,77.1603964
Delhi,"DDA Flats Sarita Vihar, Sarita Vihar, Mathura Road","Delhi, DDA Flats Sarita Vihar, Sarita Vihar, Mathura Road",2,28.5319323,77.2869829
Delhi,"DDA Flats Sector E Pocket 1, Vasant Kunj","Delhi, DDA Flats Sector E Pocket 1, Vasant Kunj",1,28.5124389,77.1370115
Delhi,"DDA Rose Apartments, Dwarka Sector 18B","Delhi, DDA Rose Apartments, Dwarka Sector 18B",1,28.5856982,77.033888
Delhi,"DJA Apartments, Dwarka Sector 13","Delhi, DJA Apartments, Dwarka Sector 13",1,28.6000934,77.0396896
Delhi,DS 19,"Delhi, DS 19",5,28.7040592,77.1024902
Delhi,Dakshini Pitampura,"Delhi, Dakshini Pitampura",2,28.7010072,77.1377306
Delhi,"Dayanand Vihar, Anand Vihar","Delhi, Dayanand Vihar, Anand Vihar",1,28.6443433,77.3022868
Delhi,"Devli, Sangam Vihar","Delhi, Devli, Sangam Vihar",1,28.4962152,77.2376414
Delhi,Dilshad Colony,"Delhi, Dilshad Colony",1,28.6854971,77.327257
Delhi,Dilshad Garden,"Delhi, Dilshad Garden",1,28.6828082,77.3121354
Delhi,Dori Walan,"Delhi, Dori Walan",1,28.6563901,77.1991965
Delhi,Dr Mukherjee Nagar West,"Delhi, Dr Mukherjee Nagar West",1,28.7093202,77.2138443
Delhi,Dwarka,"Delhi, Dwarka",3,28.5822999,77.0499762
Delhi,Dwarka Mor,"Delhi, Dwarka Mor",5,28.6191983,77.0322963
Delhi,Dwarka Sector 14,"Delhi, Dwarka Sector 14",2,28.6038371,77.0290995
Delhi,Dwarka Sector 17,"Delhi, Dwarka Sector 17",1,28.5920936,77.0262205
Delhi,Dwarka Sector 22,"Delhi, Dwarka Sector 22",1,28.5607215,77.0597175
Delhi,Dwarka Sector 23,"Delhi, Dwarka Sector 23",2,28.5633432,77.0550072
Delhi,Dwarka Sector 23B,"Delhi, Dwarka Sector 23B",1,28.5610619,77.041244
Delhi,Dwarka Sector 5,"Delhi, Dwarka Sector 5",1,28.5980218,77.0578855
Delhi,Dwarka Sector 7,"Delhi, Dwarka Sector 7",1,28.5842915,77.0715564
Delhi,Dwarka Sector 8,"Delhi, Dwarka Sector 8",2,28.5720379,77.070837
Delhi,Dwarka Sector 9,"Delhi, Dwarka Sector 9",1,28.580941,77.0698195
Delhi,Dwarka sec 19,"Delhi, Dwarka sec 19",1,28.5860795,77.0486422
Delhi,"East End Apartments, Ph. 1ext near new Ashok nagar","Delhi, East End Apartments, Ph. 1ext near new Ashok nagar",1,28.5929914,77.3051591
Delhi,East Of Kailash,"Delhi, East Of Kailash",4,28.5583464,77.2530829
Delhi,"Everest Apartment, Kalkaji","Delhi, Everest Apartment, Kalkaji",1,28.5276346,77.2598981
Delhi,Falt,"Delhi, Falt",1,28.7040592,77.1024902
Delhi,"Fateh Nagar, Janakpuri","Delhi, Fateh Nagar, Janakpuri",1,28.6303737,77.10057
Delhi,Freedom Fighters Enclave,"Delhi, Freedom Fighters Enclave",2,28.5090004,77.1976613
Delhi,"Gagan Vihar, Krishna Nagar","Delhi, Gagan Vihar, Krishna Nagar",2,28.6450792,77.2938316
Delhi,Gandhi Nagar,"Delhi, Gandhi Nagar",1,28.6661232,77.2740109
Delhi,"Ganesh Nagar, Tilak Nagar","Delhi, Ganesh Nagar, Tilak Nagar",2,28.6361186,77.0888228
Delhi,Ganga Vihar,"Delhi, Ganga Vihar",1,28.7065649,77.2857697
Delhi,"Gangaram Vatika, Vishnu Garden","Delhi, Gangaram Vatika, Vishnu Garden",1,28.643219,77.1003987
Delhi,"Gaurav Apartment, Indraprastha Extension, Patparganj","Delhi, Gaurav Apartment, Indraprastha Extension, Patparganj",1,28.6337561,77.3053994
Delhi,Gautam Nagar,"Delhi, Gautam Nagar",2,28.5620966,77.2139292
Delhi,Geeta Colony,"Delhi, Geeta Colony",1,28.6539087,77.2712102
Delhi,"Geeta Colony PRWS Block 3 And 7, Rajgarh Colony","Delhi, Geeta Colony PRWS Block 3 And 7, Rajgarh Colony",1,28.6539225,77.271046
Delhi,Gharoli,"Delhi, Gharoli",1,28.6182882,77.3357425
Delhi,Ghitorni,"Delhi, Ghitorni",3,28.4964413,77.1393872
Delhi,Gopalpur,"Delhi, Gopalpur",1,28.7183436,77.2154259
Delhi,Govindpuri Main,"Delhi, Govindpuri Main",1,28.5354383,77.2639326
Delhi,Greater Kailash,"Delhi, Greater Kailash",1,28.548202,77.2380163
Delhi,Greater Kailash 2,"Delhi, Greater Kailash 2",1,28.5289481,77.24642
Delhi,Green Park,"Delhi, Green Park",1,28.5584489,77.2029376
Delhi,"Guru Angad Nagar West, Laxmi Nagar","Delhi, Guru Angad Nagar West, Laxmi Nagar",2,28.6399018,77.2827649
Delhi,Hari Nagar,"Delhi, Hari Nagar",2,28.6248596,77.1108681
Delhi,Hari Nagar Ashram,"Delhi, Hari Nagar Ashram",2,28.5735755,77.2575
Delhi,Hastsal,"Delhi, Hastsal",1,28.6376463,77.0489185
Delhi,Hauz Khas,"Delhi, Hauz Khas",1,28.5478897,77.2031247
Delhi,"Highland Tower, Dwarka Sector 12","Delhi, Highland Tower, Dwarka Sector 12",1,28.5912043,77.0368121
Delhi,"IGNOU Road, Saket","Delhi, IGNOU Road, Saket",2,28.518666,77.2063373
Delhi,"Inder Puri Block A, Inder Puri","Delhi, Inder Puri Block A, Inder Puri",1,28.6278283,77.1497746
Delhi,"Indraprastha Extension, Patparganj","Delhi, Indraprastha Extension, Patparganj",3,28.6295233,77.3123396
Delhi,"Jagriti Enclave, Anand Vihar","Delhi, Jagriti Enclave, Anand Vihar",2,28.6498968,77.3120704
Delhi,"Jai laxmi Apartments, Indraprastha Extension, Patparganj","Delhi, Jai laxmi Apartments, Indraprastha Extension, Patparganj",1,28.629589,77.3062004
Delhi,Jaitpur,"Delhi, Jaitpur",1,28.5082271,77.3307972
Delhi,"Jamia Nagar, Okhla","Delhi, Jamia Nagar, Okhla",1,28.5538528,77.295553
Delhi,"Janak Park, Hari Nagar","Delhi, Janak Park, Hari Nagar",1,28.6270562,77.1100426
Delhi,Janakpuri,"Delhi, Janakpuri",8,28.621899,77.0878385
Delhi,Janakpuri Block B1,"Delhi, Janakpuri Block B1",1,28.6318195,77.0888228
Delhi,Jangpura,"Delhi, Jangpura",1,28.5826307,77.2486596
Delhi,"Jangpura Extension, Jangpura","Delhi, Jangpura Extension, Jangpura",1,28.581257,77.2419522
Delhi,Jhangir Puri,"Delhi, Jhangir Puri",1,28.7296171,77.1666313
Delhi,Jhilmil Colony,"Delhi, Jhilmil Colony",1,28.6715031,77.3066258
Delhi,Kadipur,"Delhi, Kadipur",1,28.7735014,77.1617953
Delhi,"Kailash Colony, Greater Kailash","Delhi, Kailash Colony, Greater Kailash",2,28.5534601,77.2425807
Delhi,Kalkaji,"Delhi, Kalkaji",6,28.5399515,77.2591579
Delhi,Kalkaji Extension,"Delhi, Kalkaji Extension",1,28.5421788,77.2567012
Delhi,Kamla Nagar,"Delhi, Kamla Nagar",2,28.6809111,77.2045867
Delhi,Kapi Bagan Basti,"Delhi, Kapi Bagan Basti",1,28.7040592,77.1024902
Delhi,Karawal Nagar,"Delhi, Karawal Nagar",1,28.7300999,77.2722702
Delhi,"Karkardooma, Anand Vihar","Delhi, Karkardooma, Anand Vihar",2,28.6529458,77.3022868
Delhi,Karol Bagh,"Delhi, Karol Bagh",4,28.6550458,77.1888201
Delhi,"Kasturba Niketan, Lajpat Nagar 2","Delhi, Kasturba Niketan, Lajpat Nagar 2",1,28.571167,77.2451852
Delhi,"Keshav Puram, Tri Nagar","Delhi, Keshav Puram, Tri Nagar",1,28.6874636,77.157839
Delhi,"Khanpur Extension, Sangam Vihar","Delhi, Khanpur Extension, Sangam Vihar",1,28.5123732,77.2340489
Delhi,"Khanpur, Madangir","Delhi, Khanpur, Madangir",2,28.5199221,77.2304564
Delhi,"Khirki extension, Malviya Nagar","Delhi, Khirki extension, Malviya Nagar",2,28.5308163,77.2168036
Delhi,"Kishangarh, Vasant Kunj","Delhi, Kishangarh, Vasant Kunj",1,28.5199683,77.1683829
Delhi,"Kohinoor Apartment, Kalkaji Extention","Delhi, Kohinoor Apartment, Kalkaji Extention",1,28.5308436,77.263047
Delhi,"Kotla Mubarakpur, South Extension","Delhi, Kotla Mubarakpur, South Extension",1,28.5754899,77.2273691
Delhi,"Kotla, Mayur Vihar","Delhi, Kotla, Mayur Vihar",1,28.6123368,77.3012097
Delhi,Krishna Nagar,"Delhi, Krishna Nagar",1,28.6509821,77.286333
Delhi,Krishna Nagar Block D,"Delhi, Krishna Nagar Block D",1,28.6567502,77.2885526
Delhi,Krishna Park,"Delhi, Krishna Park",1,28.6387891,77.0846401
Delhi,Lado Sarai,"Delhi, Lado Sarai",2,28.5259604,77.1970135
Delhi,Lajpat Nagar,"Delhi, Lajpat Nagar",8,28.5649034,77.2403317
Delhi,Lajpat Nagar 1,"Delhi, Lajpat Nagar 1",5,28.5334705,77.211582
Delhi,Lajpat Nagar 4,"Delhi, Lajpat Nagar 4",8,28.5609053,77.2390784
Delhi,"Lajpat Nagar II, null","Delhi, Lajpat Nagar II, null",1,28.5692718,77.2441075
Delhi,Laxmi Nagar,"Delhi, Laxmi Nagar",19,28.6275609,77.2784081
Delhi,"Laxmi Nagar District Centre, Laxmi Nagar","Delhi, Laxmi Nagar District Centre, Laxmi Nagar",1,28.6386345,77.2877069
Delhi,Mahaveer Nagar,"Delhi, Mahaveer Nagar",1,28.5727696,77.2243488
Delhi,Mahavir Enclave Part 1,"Delhi, Mahavir Enclave Part 1",3,28.599966,77.0780316
Delhi,Mahavir Enclave Part 3,"Delhi, Mahavir Enclave Part 3",1,28.6072242,77.0715564
Delhi,"Mahendru Enclave, Model Town","Delhi, Mahendru Enclave, Model Town",1,28.702697,77.1851807
Delhi,Mahipalpur,"Delhi, Mahipalpur",3,28.5448686,77.1281345
Delhi,"Maidan Garhi, Chhattarpur","Delhi, Maidan Garhi, Chhattarpur",1,28.4997988,77.195326
Delhi,Main Ghitorni,"Delhi, Main Ghitorni",1,28.4964413,77.1393872
Delhi,Malviya Nagar,"Delhi, Malviya Nagar",7,28.5342332,77.2094473
Delhi,"Manak Vihar, Anand Vihar","Delhi, Manak Vihar, Anand Vihar",1,28.6581473,77.3155706
Delhi,"Mandakini Enclave, Alaknanda","Delhi, Mandakini Enclave, Alaknanda",1,28.5291866,77.2484367
Delhi,Mandawali,"Delhi, Mandawali",2,28.6269627,77.2952983
Delhi,Mansa Ram Park,"Delhi, Mansa Ram Park",1,28.6164158,77.0406147
Delhi,Mansarovar garden,"Delhi, Mansarovar garden",1,28.6424915,77.1326969
Delhi,Mansarover Garden,"Delhi, Mansarover Garden",1,28.6424915,77.1326969
Delhi,Mausam Vihar,"Delhi, Mausam Vihar",2,28.6448755,77.2890015
Delhi,Mayur Vihar,"Delhi, Mayur Vihar",1,28.6083697,77.293112
Delhi,Mayur Vihar 1,"Delhi, Mayur Vihar 1",4,28.6083697,77.293112
Delhi,Mayur Vihar 3,"Delhi, Mayur Vihar 3",1,28.6095544,77.3302981
Delhi,Mayur Vihar Phase 1 Extension,"Delhi, Mayur Vihar Phase 1 Extension",3,28.6068563,77.294755
Delhi,Mehrauli,"Delhi, Mehrauli",7,28.5204637,77.178666
Delhi,Model Town,"Delhi, Model Town",3,28.7095346,77.1887698
Delhi,"Mohan Garden, Razapur Khurd","Delhi, Mohan Garden, Razapur Khurd",3,28.6338877,77.0356152
Delhi,Mukherjee Nagar,"Delhi, Mukherjee Nagar",2,28.7093202,77.2138443
Delhi,Munirka,"Delhi, Munirka",1,28.5532203,77.1745067
Delhi,"Munirka Vihar, Munirka","Delhi, Munirka Vihar, Munirka",1,28.5532203,77.1745067
Delhi,Najafgarh,"Delhi, Najafgarh",6,28.6090126,76.9854526
Delhi,"Nalanda Apartment, Vikaspuri","Delhi, Nalanda Apartment, Vikaspuri",1,28.6357744,77.0649005
Delhi,Narela,"Delhi, Narela",1,28.8548818,77.0892151
Delhi,"Naveen Shahdara, Shahdara","Delhi, Naveen Shahdara, Shahdara",1,28.6761928,77.2828969
Delhi,Nawada,"Delhi, Nawada",1,28.6241749,77.0366415
Delhi,Neb Sarai,"Delhi, Neb Sarai",5,28.5049596,77.2088987
Delhi,New Ashok Nagar,"Delhi, New Ashok Nagar",2,28.5929914,77.3051591
Delhi,New Delhi,"Delhi, New Delhi",2,28.6139391,77.2090212
Delhi,"New Mahavir Nagar, Tilak Nagar","Delhi, New Mahavir Nagar, Tilak Nagar",1,28.6342693,77.0845064
Delhi,New Rajendra Nagar,"Delhi, New Rajendra Nagar",1,28.6349338,77.1792825
Delhi,"Nirankari Colony, Mukherjee Nagar","Delhi, Nirankari Colony, Mukherjee Nagar",1,28.7165478,77.2063834
Delhi,"Nirman Vihar, Preet Vihar","Delhi, Nirman Vihar, Preet Vihar",2,28.6350273,77.2872061
Delhi,"Nizamuddin East, Nizamuddin","Delhi, Nizamuddin East, Nizamuddin",1,28.5902107,77.2499367
Delhi,Palam,"Delhi, Palam",3,28.5900637,77.0887828
Delhi,Palam - Dabri Marg,"Delhi, Palam - Dabri Marg",1,28.6029976,77.0826238
Delhi,"Palam Colony, Palam","Delhi, Palam Colony, Palam",2,28.5884993,77.0780316
Delhi,Palam Extension,"Delhi, Palam Extension",1,28.5879443,77.0722759
Delhi,"Panchsheel Vihar, Sheikh Sarai","Delhi, Panchsheel Vihar, Sheikh Sarai",2,28.5334659,77.2196985
Delhi,Pandav Nagar,"Delhi, Pandav Nagar",4,28.6147804,77.2776579
Delhi,"Paryavaran Complex, Sainik Farm","Delhi, Paryavaran Complex, Sainik Farm",3,28.514317,77.2017119
Delhi,Paschim Vihar,"Delhi, Paschim Vihar",10,28.6691255,77.0928656
Delhi,Paschim Vihar Block A3,"Delhi, Paschim Vihar Block A3",2,28.6706006,77.1046481
Delhi,Paschim Vihar Block A6,"Delhi, Paschim Vihar Block A6",2,28.6757075,77.1110653
Delhi,Paschim Vihar Block B1,"Delhi, Paschim Vihar Block B1",1,28.670339,77.1100651
Delhi,Patel Nagar West,"Delhi, Patel Nagar West",3,28.6518267,77.1644665
Delhi,Patparganj,"Delhi, Patparganj",3,28.6347308,77.3045711
Delhi,Peera Garhi,"Delhi, Peera Garhi",1,28.6765157,77.0917003
Delhi,Pitampura,"Delhi, Pitampura",8,28.6989703,77.1387225
Delhi,Preet Vihar,"Delhi, Preet Vihar",2,28.63642,77.2927538
Delhi,Prem Nagar,"Delhi, Prem Nagar",1,28.6919492,77.0528648
Delhi,"Prem Nagar, Patel Nagar","Delhi, Prem Nagar, Patel Nagar",1,28.6618023,77.1621769
Delhi,Pul Prahlad Pur,"Delhi, Pul Prahlad Pur",1,28.4993959,77.2918391
Delhi,Pusa Institutional Area,"Delhi, Pusa Institutional Area",1,28.5384505,77.1846218
Delhi,"Pushpanjali, Anand Vihar","Delhi, Pushpanjali, Anand Vihar",2,28.6541391,77.3073133
Delhi,"Qutub Vihar, Dwarka","Delhi, Qutub Vihar, Dwarka",1,28.5747705,77.0261297
Delhi,RWA triveni residents,"Delhi, RWA triveni residents",1,28.7040592,77.1024902
Delhi,Radhey Shyam Park,"Delhi, Radhey Shyam Park",1,28.6439542,77.286847
Delhi,"Raghubir Nagar, Tagore Garden Extension","Delhi, Raghubir Nagar, Tagore Garden Extension",1,28.6478132,77.1060866
Delhi,Raj Nagar 2,"Delhi, Raj Nagar 2",2,28.5770319,77.0780316
Delhi,Rajouri Garden,"Delhi, Rajouri Garden",5,28.6417002,77.1224529
Delhi,"Rajpur Khurd Extension, Rajpur","Delhi, Rajpur Khurd Extension, Rajpur",1,28.4891466,77.1937144
Delhi,Ram Nagar,"Delhi, Ram Nagar",2,28.6802872,77.2958239
Delhi,Ramesh Nagar,"Delhi, Ramesh Nagar",1,28.65109,77.1326969
Delhi,Rangpuri,"Delhi, Rangpuri",1,28.5290402,77.1260781
Delhi,Rohini Sector 11,"Delhi, Rohini Sector 11",2,28.7288259,77.1068059
Delhi,Rohini Sector 15,"Delhi, Rohini Sector 15",1,28.7309194,77.1277312
Delhi,Rohini Sector 16,"Delhi, Rohini Sector 16",1,28.7354495,77.117477
Delhi,Rohini Sector 17,"Delhi, Rohini Sector 17",1,28.7408388,77.1125599
Delhi,Rohini Sector 18,"Delhi, Rohini Sector 18",2,28.7430568,77.1355733
Delhi,Rohini Sector 2,"Delhi, Rohini Sector 2",1,28.6975436,77.1017709
Delhi,Rohini Sector 21,"Delhi, Rohini Sector 21",2,28.7134753,77.06652
Delhi,Rohini Sector 22,"Delhi, Rohini Sector 22",1,28.718647,77.0607637
Delhi,Rohini Sector 23,"Delhi, Rohini Sector 23",2,28.7205959,77.0809093
Delhi,Rohini Sector 24,"Delhi, Rohini Sector 24",6,28.7284523,77.0881034
Delhi,Rohini Sector 3,"Delhi, Rohini Sector 3",2,28.6997737,77.1154589
Delhi,Rohini Sector 38,"Delhi, Rohini Sector 38",2,28.730839,77.053568
Delhi,Rohini Sector 4,"Delhi, Rohini Sector 4",1,28.7065313,77.1021305
Delhi,Rohini Sector 5,"Delhi, Rohini Sector 5",1,28.7163042,77.1032095
Delhi,Rohini Sector 7,"Delhi, Rohini Sector 7",2,28.7080569,77.1179541
Delhi,Rohini Sector 8,"Delhi, Rohini Sector 8",1,28.7020337,77.1237928
Delhi,Safdarjung Enclave,"Delhi, Safdarjung Enclave",3,28.564726,77.1949164
Delhi,Sagar Pur,"Delhi, Sagar Pur",2,28.6006643,77.1031181
Delhi,"Saini Enclave, Anand Vihar","Delhi, Saini Enclave, Anand Vihar",2,28.6527655,77.3060567
Delhi,Saket,"Delhi, Saket",11,28.5220971,77.2101534
Delhi,Sangam Vihar,"Delhi, Sangam Vihar",2,28.4991256,77.2382204
Delhi,Sant Nagar,"Delhi, Sant Nagar",1,28.7432196,77.1977785
Delhi,Sarita Vihar Pocket C,"Delhi, Sarita Vihar Pocket C",1,28.5294736,77.2905286
Delhi,Sarita Vihar Pocket K,"Delhi, Sarita Vihar Pocket K",1,28.5364738,77.2915151
Delhi,Sarita Vihar Pocket M,"Delhi, Sarita Vihar Pocket M",1,28.5400226,77.2986963
Delhi,"Sarita Vihar, Mathura Road","Delhi, Sarita Vihar, Mathura Road",1,28.5319323,77.2869829
Delhi,Sarojini Nagar,"Delhi, Sarojini Nagar",1,28.5740324,77.1990669
Delhi,Sarvodaya Enclave,"Delhi, Sarvodaya Enclave",1,28.5372066,77.2011857
Delhi,Sethi floor nihal vihar,"Delhi, Sethi floor nihal vihar",1,28.6624624,77.0722759
Delhi,Shadipur,"Delhi, Shadipur",3,28.651027,77.1562196
Delhi,Shahdara,"Delhi, Shahdara",1,28.6713752,77.2692261
Delhi,Shakarpur,"Delhi, Shakarpur",2,28.6279488,77.2786205
Delhi,"Shakarpur Khas, Shakarpur","Delhi, Shakarpur Khas, Shakarpur",1,28.633403,77.282087
Delhi,Shakti Nagar,"Delhi, Shakti Nagar",1,28.6800116,77.1976346
Delhi,Shalimar bagh,"Delhi, Shalimar bagh",4,28.7162534,77.1562594
Delhi,Sheikh Sarai,"Delhi, Sheikh Sarai",1,28.5363155,77.2218338
Delhi,Sheikh Sarai Phase 1,"Delhi, Sheikh Sarai Phase 1",1,28.5385355,77.2225524
Delhi,"Shiva Enclave, Paschim Vihar","Delhi, Shiva Enclave, Paschim Vihar",1,28.6759848,77.1122003
Delhi,"Shivalik, Malviya Nagar","Delhi, Shivalik, Malviya Nagar",1,28.5340242,77.2053054
Delhi,South,"Delhi, South",1,28.470931,77.1830243
Delhi,South Extension 1,"Delhi, South Extension 1",1,28.5703309,77.222954
Delhi,Subhash Nagar,"Delhi, Subhash Nagar",2,28.6352454,77.1174826
Delhi,Sudarshan Park,"Delhi, Sudarshan Park",1,28.662796,77.1334325
Delhi,Sultanpur,"Delhi, Sultanpur",2,28.4967184,77.1633995
Delhi,Surajmal Vihar,"Delhi, Surajmal Vihar",4,28.6598215,77.30497
Delhi,Surya Apartment pocket a11,"Delhi, Surya Apartment pocket a11",1,28.5611468,77.269517
Delhi,"Tagore Garden, Rajouri Garden, Najafgarh Road","Delhi, Tagore Garden, Rajouri Garden, Najafgarh Road",1,28.6262044,77.0692158
Delhi,"The Shabad Apartment, Dwarka Sector 13","Delhi, The Shabad Apartment, Dwarka Sector 13",1,28.6028591,77.0393553
Delhi,Tri Nagar,"Delhi, Tri Nagar",1,28.680902,77.1547425
Delhi,Trilokpuri,"Delhi, Trilokpuri",1,28.601243,77.3031561
Delhi,Uttam Nagar,"Delhi, Uttam Nagar",8,28.6195574,77.0549901
Delhi,"V3s East Centre, Laxmi Nagar","Delhi, V3s East Centre, Laxmi Nagar",1,28.6369311,77.2859523
Delhi,Vasant Kunj,"Delhi, Vasant Kunj",8,28.5293121,77.1484442
Delhi,"Vasant Kunj 2, Vasant Kunj","Delhi, Vasant Kunj 2, Vasant Kunj",1,28.5374892,77.1297579
Delhi,Vasant Kunj Sector B,"Delhi, Vasant Kunj Sector B",1,28.5274118,77.1585822
Delhi,Vasant Kunj Sector C,"Delhi, Vasant Kunj Sector C",1,28.5378671,77.1454007
Delhi,Vasundhara Enclave,"Delhi, Vasundhara Enclave",1,28.6001813,77.3165886
Delhi,Vikash Nagar,"Delhi, Vikash Nagar",1,28.6392345,77.0289342
Delhi,Vikaspuri,"Delhi, Vikaspuri",3,28.6386438,77.07206
Delhi,"Vikram Vihar, Lajpat Nagar","Delhi, Vikram Vihar, Lajpat Nagar",2,28.5642859,77.2369229
Delhi,Vinod Nagar East,"Delhi, Vinod Nagar East",1,28.6229205,77.3086902
Delhi,Vinod Nagar West,"Delhi, Vinod Nagar West",1,28.624646,77.2986963
Delhi,"Viswas Park, Matiala","Delhi, Viswas Park, Matiala",1,28.6108623,77.0555459
Delhi,Vivek Vihar,"Delhi, Vivek Vihar",1,28.6712458,77.3176541
Delhi,Vivek Vihar Phase 1,"Delhi, Vivek Vihar Phase 1",1,28.6689154,77.3195196
Delhi,Vivek Vihar Phase 2,"Delhi, Vivek Vihar Phase 2",1,28.6710703,77.304441
Delhi,dwarka sector 8 Raj Nagar extension part 2,"Delhi, dwarka sector 8 Raj Nagar extension part 2",1,28.5720379,77.070837
Delhi,gg1 vikas puri,"Delhi, gg1 vikas puri",1,28.6397,77.0776719
Delhi,kst chattarpur Apartments,"Delhi, kst chattarpur Apartments",13,28.4644806,77.1862118
Delhi,north chajjupur shahdara,"Delhi, north chajjupur shahdara",1,28.6899888,77.2866674
Hyderabad," in Boduppal, NH 2 2","Hyderabad,  in Boduppal, NH 2 2",1,17.41412,78.5790607
Hyderabad," in Erragadda, NH 9","Hyderabad,  in Erragadda, NH 9",1,17.4551929,78.4344776
Hyderabad," in Miyapur, NH 9","Hyderabad,  in Miyapur, NH 9",1,17.4951587,78.3439532
Hyderabad,5-20 Adharshnagar,"Hyderabad, 5-20 Adharshnagar",1,17.4868736,78.4455941
Hyderabad,A 307 Blossom Heights,"Hyderabad, A 307 Blossom Heights",1,17.4461613,78.2547368
Hyderabad,"APHB Colony-Moula Ali, Moula Ali Road","Hyderabad, APHB Colony-Moula Ali, Moula Ali Road",1,17.4562484,78.5558284
Hyderabad,Abhyudaya Nagar,"Hyderabad, Abhyudaya Nagar",1,17.3377429,78.5618265
Hyderabad,"Abids, NH 7","Hyderabad, Abids, NH 7",1,17.3922762,78.4702044
Hyderabad,Adibatla,"Hyderabad, Adibatla",1,17.2335311,78.5425543
Hyderabad,Adikmet,"Hyderabad, Adikmet",1,17.4046741,78.5107083
Hyderabad,Akhilandeswari Nagar,"Hyderabad, Akhilandeswari Nagar",1,17.3154583,78.5761988
Hyderabad,Akkineni Homes Yousufguda,"Hyderabad, Akkineni Homes Yousufguda",1,17.4382369,78.4268194
Hyderabad,"Akshya nagar, Raghavendra colony, Road no:4,Boduppal","Hyderabad, Akshya nagar, Raghavendra colony, Road no:4,Boduppal",1,17.4715685,78.3600448
Hyderabad,Ali Bagh Kala pather,"Hyderabad, Ali Bagh Kala pather",1,17.3479774,78.4606181
Hyderabad,"Alijapur, Qutub Shahi Tombs","Hyderabad, Alijapur, Qutub Shahi Tombs",1,17.3963106,78.3931742
Hyderabad,"Alkapur Township, Hyderabad","Hyderabad, Alkapur Township, Hyderabad",1,17.3869595,78.3692899
Hyderabad,"Alkapur Township, Manikonda, Outer Ring Road","Hyderabad, Alkapur Township, Manikonda, Outer Ring Road",3,17.4384109,78.3636718
Hyderabad,Allwyn Colony,"Hyderabad, Allwyn Colony",2,17.5066172,78.4112384
Hyderabad,Almasguda,"Hyderabad, Almasguda",3,17.3125498,78.5363288
Hyderabad,Alwal,"Hyderabad, Alwal",5,17.4967016,78.5066233
Hyderabad,"Ambedkar Nagar-Boduppal, Secunderabad","Hyderabad, Ambedkar Nagar-Boduppal, Secunderabad",1,17.4281545,78.5767311
Hyderabad,Amberpet,"Hyderabad, Amberpet",8,17.3920179,78.5162559
Hyderabad,Ameenpur,"Hyderabad, Ameenpur",2,17.5171428,78.315742
Hyderabad,Aminpur,"Hyderabad, Aminpur",2,17.5171428,78.315742
Hyderabad,Ammenpur,"Hyderabad, Ammenpur",1,17.5171428,78.315742
Hyderabad,"Anand Nagar-Khairatabad, NH 7","Hyderabad, Anand Nagar-Khairatabad, NH 7",2,17.4062058,78.4671851
Hyderabad,"Anandbagh, Secunderabad, Moula Ali Road","Hyderabad, Anandbagh, Secunderabad, Moula Ali Road",1,17.4545951,78.5549542
Hyderabad,Anupuram Colony,"Hyderabad, Anupuram Colony",1,17.4758079,78.5601921
Hyderabad,Aruna Colony,"Hyderabad, Aruna Colony",1,17.3984782,78.4075063
Hyderabad,"Arvind Nagar Colony, Toli Chowki","Hyderabad, Arvind Nagar Colony, Toli Chowki",1,17.4016335,78.4023524
Hyderabad,"Ashok Nagar, Himayath Nagar","Hyderabad, Ashok Nagar, Himayath Nagar",4,17.4062834,78.489987
Hyderabad,Asif Nagar,"Hyderabad, Asif Nagar",1,17.3868117,78.4538802
Hyderabad,Attapur,"Hyderabad, Attapur",14,17.3667195,78.4285084
Hyderabad,"Ayodhya Nagar, Quthbullapur","Hyderabad, Ayodhya Nagar, Quthbullapur",1,17.5085179,78.4560118
Hyderabad,"B N Reddy Nagar, Nagarjuna Sagar Road","Hyderabad, B N Reddy Nagar, Nagarjuna Sagar Road",1,17.3128702,78.5635178
Hyderabad,B.S.Maktha,"Hyderabad, B.S.Maktha",1,17.4289742,78.4605201
Hyderabad,BHEL,"Hyderabad, BHEL",4,17.491595,78.2920407
Hyderabad,BN Reddy Nagar,"Hyderabad, BN Reddy Nagar",1,17.3140619,78.5613319
Hyderabad,Bachupally,"Hyderabad, Bachupally",3,17.5513353,78.3855189
Hyderabad,Badesahebguda,"Hyderabad, Badesahebguda",1,17.4299376,78.6710756
Hyderabad,Balanagar,"Hyderabad, Balanagar",2,17.4813993,78.4489935
Hyderabad,Balapur,"Hyderabad, Balapur",1,17.3088602,78.5062362
Hyderabad,"Balapur X road,Triveni nagar","Hyderabad, Balapur X road,Triveni nagar",1,17.319366,78.519023
Hyderabad,Bandam Kommu,"Hyderabad, Bandam Kommu",2,17.5043215,78.3230559
Hyderabad,Bandari Layout,"Hyderabad, Bandari Layout",1,17.520385,78.3847216
Hyderabad,Bandlaguda Jagir,"Hyderabad, Bandlaguda Jagir",11,17.3629719,78.3943263
Hyderabad,"Banjara Hills, NH 9","Hyderabad, Banjara Hills, NH 9",16,17.4542817,78.4346794
Hyderabad,"Bapu Nagar, Lakdikapul","Hyderabad, Bapu Nagar, Lakdikapul",1,17.4038558,78.4633256
Hyderabad,Bapu Nagar-Langar Houz,"Hyderabad, Bapu Nagar-Langar Houz",1,17.3733354,78.413675
Hyderabad,"Basheer Bagh, Hyderabad,","Hyderabad, Basheer Bagh, Hyderabad,",1,17.3990949,78.4773256
Hyderabad,"Basheer Bagh, NH 7","Hyderabad, Basheer Bagh, NH 7",3,17.4062058,78.4671851
Hyderabad,"Beeramguda, Ramachandra Puram, NH 9","Hyderabad, Beeramguda, Ramachandra Puram, NH 9",10,17.6924723,77.4657081
Hyderabad,Begumpet,"Hyderabad, Begumpet",6,17.4447068,78.4663812
Hyderabad,"Bhagya Nagar Colony, Secunderabad","Hyderabad, Bhagya Nagar Colony, Secunderabad",2,17.4948508,78.4030633
Hyderabad,"Bharat Nagar, Moosapet","Hyderabad, Bharat Nagar, Moosapet",1,17.4653778,78.4272358
Hyderabad,Bheeram guda,"Hyderabad, Bheeram guda",1,17.518468,78.3038449
Hyderabad,"Boduppal, NH 2 2","Hyderabad, Boduppal, NH 2 2",11,17.41412,78.5790607
Hyderabad,"Bolarum, Medchal Road","Hyderabad, Bolarum, Medchal Road",7,17.5331199,78.4887021
Hyderabad,"Bollaram, Outer Ring Road","Hyderabad, Bollaram, Outer Ring Road",1,17.4384109,78.3636718
Hyderabad,"Bongloor, Outer Ring Road","Hyderabad, Bongloor, Outer Ring Road",1,17.4384109,78.3636718
Hyderabad,Borabanda,"Hyderabad, Borabanda",3,17.4534663,78.4130138
Hyderabad,Bowenpally,"Hyderabad, Bowenpally",2,17.4685901,78.4810648
Hyderabad,"Buddha Nagar Colony, Boduppal","Hyderabad, Buddha Nagar Colony, Boduppal",1,17.4071271,78.5909239
Hyderabad,Budwel,"Hyderabad, Budwel",1,17.3343684,78.4064687
Hyderabad,Camelot Layout,"Hyderabad, Camelot Layout",1,17.4657596,78.3479537
Hyderabad,"Champapet, Koti","Hyderabad, Champapet, Koti",1,17.3827111,78.4897566
Hyderabad,Chanchalguda,"Hyderabad, Chanchalguda",1,17.3689086,78.4965043
Hyderabad,Chanda Nagar,"Hyderabad, Chanda Nagar",6,17.4934113,78.3277948
Hyderabad,"Chanda Naik Nagar, Madhapur","Hyderabad, Chanda Naik Nagar, Madhapur",2,17.4537988,78.3920437
Hyderabad,"Chandanagar, NH 9","Hyderabad, Chandanagar, NH 9",5,17.4950536,78.3300862
Hyderabad,Chandrayanguttabalguda,"Hyderabad, Chandrayanguttabalguda",1,17.31228,78.4737736
Hyderabad,"Chandulal bela colony, shahalibanda","Hyderabad, Chandulal bela colony, shahalibanda",1,17.3524615,78.474617
Hyderabad,Chilakalguda,"Hyderabad, Chilakalguda",1,17.4302094,78.5107801
Hyderabad,"Chintal, NH 7","Hyderabad, Chintal, NH 7",1,17.4062058,78.4671851
Hyderabad,Chintalakunta,"Hyderabad, Chintalakunta",2,17.3338837,78.5621802
Hyderabad,"DNM Colony, Sanath Nagar","Hyderabad, DNM Colony, Sanath Nagar",1,17.4527645,78.4489062
Hyderabad,Dammaiguda,"Hyderabad, Dammaiguda",5,17.5003026,78.5938192
Hyderabad,Deepthisri nagar colony,"Hyderabad, Deepthisri nagar colony",1,17.5015668,78.3379953
Hyderabad,Defence Colony Layout,"Hyderabad, Defence Colony Layout",1,17.3728229,78.426165
Hyderabad,Dellapur,"Hyderabad, Dellapur",1,17.463172,78.2864815
Hyderabad,Dharmapuri Colony,"Hyderabad, Dharmapuri Colony",1,17.4084023,78.5625363
Hyderabad,Dhulapally,"Hyderabad, Dhulapally",1,17.5466066,78.4667757
Hyderabad,"Dilsukh Nagar, NH 9","Hyderabad, Dilsukh Nagar, NH 9",2,17.3686393,78.5262098
Hyderabad,"Domalguda, Himayath Nagar, NH 7","Hyderabad, Domalguda, Himayath Nagar, NH 7",1,17.4108155,78.4765786
Hyderabad,Dr A.S. Rao Nagar,"Hyderabad, Dr A.S. Rao Nagar",5,17.4784775,78.5506371
Hyderabad,"Dwarakapuri, Punjagutta, NH 9","Hyderabad, Dwarakapuri, Punjagutta, NH 9",1,17.4249802,78.4533399
Hyderabad,ECIL,"Hyderabad, ECIL",1,17.4774585,78.5542901
Hyderabad,East Nehru Nagar,"Hyderabad, East Nehru Nagar",1,17.441682,78.5085778
Hyderabad,Fathenagar,"Hyderabad, Fathenagar",1,17.4572989,78.4517485
Hyderabad,Film Nagar,"Hyderabad, Film Nagar",1,17.4160258,78.4113656
Hyderabad,"Financial District, Nanakram Guda","Hyderabad, Financial District, Nanakram Guda",3,17.420747,78.337476
Hyderabad,Gachibowli,"Hyderabad, Gachibowli",28,17.4400802,78.3489168
Hyderabad,Gajularamaram,"Hyderabad, Gajularamaram",2,17.5349627,78.4022446
Hyderabad,"Gandhamguda, Bairagiguda","Hyderabad, Gandhamguda, Bairagiguda",3,17.3701387,78.3841548
Hyderabad,"Gangaram, Chandanagar, NH 9","Hyderabad, Gangaram, Chandanagar, NH 9",1,17.4950536,78.3300862
Hyderabad,"Gayatri Hills, Jubilee Hills","Hyderabad, Gayatri Hills, Jubilee Hills",1,17.4366282,78.4156699
Hyderabad,"Ghatkesar, NH 2 2","Hyderabad, Ghatkesar, NH 2 2",3,17.4531346,78.6851105
Hyderabad,"Godavari Homes, Quthbullapur","Hyderabad, Godavari Homes, Quthbullapur",1,17.5049807,78.4702215
Hyderabad,Gopanapalli,"Hyderabad, Gopanapalli",3,17.4357902,78.3012018
Hyderabad,"Gouri Shankar Nagar Colony, Banjara Hills","Hyderabad, Gouri Shankar Nagar Colony, Banjara Hills",1,17.4144115,78.4403789
Hyderabad,Gudimalkapur,"Hyderabad, Gudimalkapur",1,17.3787821,78.4374024
Hyderabad,"Gulmohar Park Colony, Serilingampally","Hyderabad, Gulmohar Park Colony, Serilingampally",1,17.4748686,78.3173641
Hyderabad,"Gundlapochampally, Outer Ring Road","Hyderabad, Gundlapochampally, Outer Ring Road",1,17.4384109,78.3636718
Hyderabad,Gurramguda balaj homes p no 4,"Hyderabad, Gurramguda balaj homes p no 4",1,17.2941136,78.5642983
Hyderabad,Gwachiwali,"Hyderabad, Gwachiwali",1,17.4400802,78.3489168
Hyderabad,HMT Swarnapuri Colony,"Hyderabad, HMT Swarnapuri Colony",1,17.5167222,78.3419076
Hyderabad,"Habsiguda, NH 2 2","Hyderabad, Habsiguda, NH 2 2",3,17.4066234,78.5437741
Hyderabad,"Hafeezpet, NH 9","Hyderabad, Hafeezpet, NH 9",7,17.4954277,78.3566063
Hyderabad,"Hari Hara Puram, B N Reddy Nagar","Hyderabad, Hari Hara Puram, B N Reddy Nagar",1,17.314777,78.5675047
Hyderabad,Hastinapuram,"Hyderabad, Hastinapuram",1,17.3168305,78.5512713
Hyderabad,"Hayathnagar, NH 9","Hyderabad, Hayathnagar, NH 9",6,17.3277253,78.6008503
Hyderabad,"Himayath Nagar, NH 7","Hyderabad, Himayath Nagar, NH 7",9,17.4108155,78.4765786
Hyderabad,Hitech City,"Hyderabad, Hitech City",2,17.4434646,78.3771953
Hyderabad,Humayun Nagar,"Hyderabad, Humayun Nagar",1,17.3991205,78.4460041
Hyderabad,"Hyder Nagar, NH 9","Hyderabad, Hyder Nagar, NH 9",3,17.4993734,78.3829246
Hyderabad,"Hyder Shah Kote, Chevella Road","Hyderabad, Hyder Shah Kote, Chevella Road",3,17.3297353,78.2749206
Hyderabad,Hyderabad,"Hyderabad, Hyderabad",2,17.385044,78.486671
Hyderabad,Hyderabad Shah Guda,"Hyderabad, Hyderabad Shah Guda",1,17.3717011,78.3820896
Hyderabad,Hyderaguda-Attapur,"Hyderabad, Hyderaguda-Attapur",1,17.3667754,78.4284229
Hyderabad,Hyderguda,"Hyderabad, Hyderguda",5,17.3938227,78.4834733
Hyderabad,Hydershakote,"Hyderabad, Hydershakote",4,17.3588522,78.4009312
Hyderabad,IAS Colony,"Hyderabad, IAS Colony",1,17.4056793,78.415763
Hyderabad,IDA Uppal,"Hyderabad, IDA Uppal",1,17.3984039,78.5533086
Hyderabad,"Indis VB CITY, Bollaram railway station","Hyderabad, Indis VB CITY, Bollaram railway station",1,17.5390699,78.5129078
Hyderabad,"Indra Nagar, Moti Nagar","Hyderabad, Indra Nagar, Moti Nagar",1,17.4492434,78.4167473
Hyderabad,Jagadgiri Gutta,"Hyderabad, Jagadgiri Gutta",4,17.5065026,78.4212898
Hyderabad,"Janachaitanya colony, Hyderabad Expressway","Hyderabad, Janachaitanya colony, Hyderabad Expressway",1,17.3605831,78.4274643
Hyderabad,"Jaya Puri Colony, Nagole","Hyderabad, Jaya Puri Colony, Nagole",1,17.3639869,78.5602605
Hyderabad,Jeedimetla,"Hyderabad, Jeedimetla",2,17.5196968,78.4586419
Hyderabad,"Jillelguda, Medbowli","Hyderabad, Jillelguda, Medbowli",2,17.3317842,78.5297637
Hyderabad,Jubilee Hills,"Hyderabad, Jubilee Hills",8,17.4325894,78.4070691
Hyderabad,K P H B Phase 9,"Hyderabad, K P H B Phase 9",1,17.485411,78.3849337
Hyderabad,KBR Laxmi Residency,"Hyderabad, KBR Laxmi Residency",1,17.3713764,78.5549057
Hyderabad,"KMR Estates, Serilingampally","Hyderabad, KMR Estates, Serilingampally",1,17.4729545,78.3465311
Hyderabad,KPHB Road,"Hyderabad, KPHB Road",2,17.4801727,78.389782
Hyderabad,KTR Colony,"Hyderabad, KTR Colony",1,17.5138542,78.3796009
Hyderabad,"Kachiguda, NH 2 2","Hyderabad, Kachiguda, NH 2 2",5,17.3900857,78.4933352
Hyderabad,Kakatiya Hills Madhapur,"Hyderabad, Kakatiya Hills Madhapur",1,17.4440255,78.3991533
Hyderabad,"Kanaka Durga Colony, Gudimalkapur","Hyderabad, Kanaka Durga Colony, Gudimalkapur",1,17.380725,78.4350037
Hyderabad,Kanchan Bagh,"Hyderabad, Kanchan Bagh",1,17.3325109,78.5098457
Hyderabad,Kapra,"Hyderabad, Kapra",9,17.4885251,78.5681716
Hyderabad,Karmanghat,"Hyderabad, Karmanghat",2,17.3413189,78.5315546
Hyderabad,Kattedan Rd,"Hyderabad, Kattedan Rd",1,17.3139044,78.4366686
Hyderabad,"Khairatabad, NH 7","Hyderabad, Khairatabad, NH 7",2,17.4133538,78.4782329
Hyderabad,"Khaja Guda, Outer Ring Road","Hyderabad, Khaja Guda, Outer Ring Road",2,17.4153172,78.3556287
Hyderabad,Khanapur,"Hyderabad, Khanapur",1,17.3999485,78.3009597
Hyderabad,"Kismatpur, Outer Ring Road","Hyderabad, Kismatpur, Outer Ring Road",1,17.3253917,78.3743431
Hyderabad,Kistareddypet,"Hyderabad, Kistareddypet",1,17.5433966,78.2945939
Hyderabad,"Kokapet, Outer Ring Road","Hyderabad, Kokapet, Outer Ring Road",2,17.4384109,78.3636718
Hyderabad,Kompally,"Hyderabad, Kompally",7,17.5366218,78.4844811
Hyderabad,Kondapur,"Hyderabad, Kondapur",18,17.4698577,78.3578246
Hyderabad,Kothapet,"Hyderabad, Kothapet",6,17.3730192,78.547636
Hyderabad,"Koti, NH 9","Hyderabad, Koti, NH 9",1,17.3804912,78.4840525
Hyderabad,"Kukatpally Housing Board Colony, NH 9","Hyderabad, Kukatpally Housing Board Colony, NH 9",1,17.4977429,78.3921117
Hyderabad,"Kukatpally, NH 9","Hyderabad, Kukatpally, NH 9",12,17.485639,78.4110852
Hyderabad,Kuntloor,"Hyderabad, Kuntloor",1,17.3385273,78.6255225
Hyderabad,"LB Nagar, NH 9","Hyderabad, LB Nagar, NH 9",7,17.3533666,78.546196
Hyderabad,LIG Colony,"Hyderabad, LIG Colony",1,17.5027003,78.2878
Hyderabad,"Lakdikapul, NH 9","Hyderabad, Lakdikapul, NH 9",2,17.4028044,78.466137
Hyderabad,"Lalaguda, Secunderabad","Hyderabad, Lalaguda, Secunderabad",1,17.4365995,78.5213601
Hyderabad,Langar Houz,"Hyderabad, Langar Houz",4,17.3782003,78.4207594
Hyderabad,"Lingampally-Serilingampally, NH 2 2","Hyderabad, Lingampally-Serilingampally, NH 2 2",1,17.4836979,78.3158338
Hyderabad,Madhapur,"Hyderabad, Madhapur",9,17.4485835,78.3908035
Hyderabad,Madhura Nagar,"Hyderabad, Madhura Nagar",1,17.4388159,78.434546
Hyderabad,Madhura Nagar-Nizampet,"Hyderabad, Madhura Nagar-Nizampet",1,17.5198393,78.3884888
Hyderabad,"Madinaguda, Hafeezpet, NH 9","Hyderabad, Madinaguda, Hafeezpet, NH 9",3,17.4954277,78.3566063
Hyderabad,"Malakpet, NH 9","Hyderabad, Malakpet, NH 9",4,17.3773563,78.492151
